     3.02           OBSERVATION DATA    G                   RINEX VERSION / TYPE
G = GPS  R = GLONASS  E = GALILEO  S = GEO  M = MIXED       COMMENT             
GNSS-SDR            UNKNOWN USER        20220621 152410 UTC PGM / RUN BY / DATE 
GPS OBSERVATION DATA FILE GENERATED BY GNSS-SDR             COMMENT             
GNSS-SDR VERSION 0.0.17.git-next-d82acd9c4                  COMMENT             
See https://gnss-sdr.org                                    COMMENT             
DEFAULT MARKER NAME                                         MARKER NAME         
UNKNOWN USER        CTTC                                    OBSERVER / AGENCY   
GNSS-SDR            Software Receiver   0.0.17.gi           REC # / TYPE / VERS 
Antenna number      Antenna type                            ANT # / TYPE        
        0.0000        0.0000        0.0000                  APPROX POSITION XYZ 
        0.0000        0.0000        0.0000                  ANTENNA: DELTA H/E/N
G    4 C1C L1C D1C S1C                                      SYS / # / OBS TYPES 
DBHZ                                                        SIGNAL STRENGTH UNIT
  2022    06    08    00    00   42.1000000     GPS         TIME OF FIRST OBS   
    18    18   137     7                                    LEAP SECONDS        
                                                            END OF HEADER       
> 2022 06 08 00 00 43.0000000  0  7                                             
G01  23415835.318 8 123051050.411 8      4001.924 8        50.596               
G09  24840675.168 7 130538624.477 7     -2599.239 7        47.317               
G04  25465043.927 8 133819703.794 8     -2839.893 8        48.016               
G21  20934694.703 8 110012542.129 8      2083.292 8        53.293               
G16  22758666.734 8 119597617.445 8     -2347.335 8        53.763               
G10  25257014.888 7 132726508.912 7      1431.161 7        45.636               
G08  20290459.414 9 106627112.878 9      -151.097 9        56.965               
> 2022 06 08 00 00 44.0000000  0  7                                             
G01  23415074.420 8 123047049.111 8      4000.685 8        52.286               
G09  24841167.218 7 130541222.436 7     -2598.634 7        45.859               
G04  25465582.500 8 133822543.429 8     -2839.215 8        48.654               
G21  20934294.705 9 110010458.783 9      2083.099 9        56.189               
G16  22759113.969 8 119599966.061 8     -2347.907 8        52.904               
G10  25256740.107 7 132725077.729 7      1434.761 7        45.641               
G08  20290494.089 9 106627263.961 9      -151.836 9        56.116               
> 2022 06 08 00 00 45.0000000  0  7                                             
G01  23414311.904 8 123043047.941 8      3999.044 8        48.437               
G09  24841660.117 8 130543820.459 8     -2599.522 8        48.047               
G04  25466122.895 7 133825382.884 7     -2841.265 7        47.879               
G21  20933901.774 9 110008376.002 9      2081.589 9        57.435               
G16  22759561.552 8 119602314.867 8     -2347.452 8        53.563               
G10  25256467.640 7 132723646.923 7      1430.419 7        46.229               
G08  20290526.789 9 106627415.440 9      -151.323 9        57.342               
> 2022 06 08 00 00 46.0000000  0  7                                             
G01  23413552.265 7 123039046.914 7      4004.831 7        47.664               
G09  24842157.296 8 130546418.543 8     -2600.322 8        48.979               
G04  25466663.692 7 133828222.161 7     -2837.418 7        46.050               
G21  20933505.832 9 110006293.782 9      2081.695 9        54.969               
G16  22760008.081 8 119604663.871 8     -2349.344 8        53.064               
G10  25256197.157 7 132722216.491 7      1426.488 7        46.736               
G08  20290553.673 9 106627567.316 9      -152.419 9        58.900               
> 2022 06 08 00 00 47.0000000  0  7                                             
G01  23412790.875 8 123035046.024 8      4001.023 8        48.729               
G09  24842651.223 8 130549016.690 8     -2599.076 8        48.111               
G04  25467203.961 7 133831061.250 7     -2839.474 7        47.340               
G21  20933105.664 8 110004212.126 8      2081.711 8        53.980               
G16  22760454.128 8 119607013.071 8     -2348.714 8        50.411               
G10  25255926.522 8 132720786.429 8      1430.988 8        48.049               
G08  20290579.351 9 106627719.590 9      -153.076 9        55.365               
> 2022 06 08 00 00 48.0000000  0  7                                             
G01  23412029.717 8 123031045.280 8      3999.920 8        51.433               
G09  24843143.443 8 130551614.899 8     -2599.516 8        48.314               
G04  25467743.007 7 133833900.162 7     -2841.951 7        46.028               
G21  20932714.342 9 110002131.034 9      2080.303 9        56.450               
G16  22760901.684 8 119609362.463 8     -2349.793 8        52.559               
G10  25255653.304 7 132719356.742 7      1429.577 7        47.647               
G08  20290604.037 9 106627872.259 9      -153.365 9        57.302               
> 2022 06 08 00 00 49.0000000  0  7                                             
G01  23411268.577 8 123027044.671 8      4001.954 8        51.653               
G09  24843639.299 7 130554213.173 7     -2598.562 7        46.421               
G04  25468286.038 7 133836738.892 7     -2839.096 7        46.801               
G21  20932315.961 9 110000050.504 9      2080.212 9        55.864               
G16  22761349.598 8 119611712.050 8     -2348.968 8        51.459               
G10  25255380.239 7 132717927.428 7      1427.640 7        46.764               
G08  20290638.229 9 106628025.325 9      -153.441 9        58.361               
> 2022 06 08 00 00 50.0000000  0  7                                             
G01  23410508.071 8 123023044.200 8      4001.290 8        50.004               
G09  24844135.817 7 130556811.512 7     -2603.283 7        47.640               
G04  25468824.798 7 133839577.433 7     -2840.418 7        46.695               
G21  20931918.357 9 109997970.542 9      2080.337 9        55.152               
G16  22761794.841 8 119614061.832 8     -2350.053 8        53.100               
G10  25255106.807 7 132716498.488 7      1428.875 7        44.653               
G08  20290670.447 9 106628178.787 9      -153.284 9        58.581               
> 2022 06 08 00 00 51.0000000  0  7                                             
G01  23409747.190 8 123019043.870 8      4000.931 8        51.156               
G09  24844625.803 7 130559409.906 7     -2599.186 7        45.586               
G04  25469364.737 7 133842415.802 7     -2840.560 7        46.354               
G21  20931526.873 9 109995891.143 9      2078.301 9        55.220               
G16  22762243.174 8 119616411.808 8     -2347.923 8        52.483               
G10  25254835.922 7 132715069.921 7      1430.244 7        46.318               
G08  20290700.940 9 106628332.647 9      -154.678 9        57.794               
> 2022 06 08 00 00 52.0000000  0  7                                             
G01  23408984.540 8 123015043.683 8      3999.510 8        51.403               
G09  24845120.918 8 130562008.367 8     -2600.036 8        48.138               
G04  25469904.802 7 133845253.973 7     -2837.428 7        47.886               
G21  20931127.903 9 109993812.307 9      2078.044 9        57.371               
G16  22762690.391 8 119618761.981 8     -2349.371 8        51.405               
G10  25254566.341 8 132713641.726 8      1428.977 8        49.786               
G08  20290725.805 9 106628486.903 9      -154.181 9        57.003               
> 2022 06 08 00 00 53.0000000  0  7                                             
G01  23408221.631 8 123011043.633 8      3998.131 8        50.178               
G09  24845618.097 8 130564606.887 8     -2595.581 8        48.311               
G04  25470445.179 7 133848091.971 7     -2841.028 7        46.896               
G21  20930733.685 9 109991734.031 9      2078.602 9        56.913               
G16  22763137.385 9 119621112.348 9     -2350.327 9        54.443               
G10  25254295.080 7 132712213.906 7      1425.931 7        47.838               
G08  20290751.045 9 106628641.553 9      -155.180 9        57.225               
> 2022 06 08 00 00 54.0000000  0  7                                             
G01  23407461.572 8 123007043.718 8      3997.815 8        49.140               
G09  24846111.496 8 130567205.469 8     -2599.074 8        48.516               
G04  25470984.654 7 133850929.785 7     -2835.593 7        47.539               
G21  20930340.424 9 109989656.323 9      2077.861 9        55.987               
G16  22763584.736 9 119623462.909 9     -2349.801 9        54.617               
G10  25254021.863 7 132710786.466 7      1424.741 7        45.950               
G08  20290785.014 9 106628796.602 9      -155.237 9        57.565               
> 2022 06 08 00 00 55.0000000  0  7                                             
G01  23406701.665 8 123003043.944 8      4000.394 8        50.817               
G09  24846604.270 7 130569804.116 7     -2598.294 7        46.784               
G04  25471524.271 7 133853767.413 7     -2839.547 7        47.286               
G21  20929940.899 8 109987579.179 8      2077.629 8        53.074               
G16  22764031.721 8 119625813.665 8     -2348.879 8        51.718               
G10  25253749.047 7 132709359.390 7      1428.800 7        46.115               
G08  20290816.839 9 106628952.047 9      -155.689 9        55.663               
> 2022 06 08 00 00 56.0000000  0  7                                             
G01  23405939.016 8 122999044.315 8      3999.775 8        49.037               
G09  24847102.057 7 130572402.821 7     -2598.080 7        46.015               
G04  25472065.265 7 133856604.862 7     -2837.686 7        45.577               
G21  20929548.067 8 109985502.602 8      2076.114 8        52.966               
G16  22764479.134 8 119628164.615 8     -2349.826 8        52.026               
G10  25253477.715 7 132707932.695 7      1424.537 7        47.620               
G08  20290849.593 9 106629107.888 9      -155.395 9        57.673               
> 2022 06 08 00 00 57.0000000  0  7                                             
G01  23405178.224 8 122995044.817 8      3999.180 8        49.833               
G09  24847595.885 8 130575001.589 8     -2601.315 8        48.303               
G04  25472605.195 7 133859442.126 7     -2841.019 7        44.747               
G21  20929154.475 8 109983426.583 8      2077.208 8        52.454               
G16  22764926.619 8 119630515.762 8     -2350.141 8        53.237               
G10  25253207.821 7 132706506.375 7      1424.713 7        47.004               
G08  20290874.055 9 106629264.124 9      -156.363 9        56.783               
> 2022 06 08 00 00 58.0000000  0  7                                             
G01  23404417.370 8 122991045.467 8      3999.226 8        50.325               
G09  24848087.623 8 130577600.417 8     -2597.994 8        49.979               
G04  25473145.224 7 133862279.207 7     -2836.631 7        46.966               
G21  20928755.209 9 109981351.132 9      2075.114 9        54.941               
G16  22765374.560 9 119632867.103 9     -2350.440 9        54.626               
G10  25252937.490 7 132705080.424 7      1425.878 7        46.321               
G08  20290900.198 9 106629420.758 9      -156.683 9        56.652               
> 2022 06 08 00 00 59.0000000  0  7                                             
G01  23403656.552 8 122987046.259 8      3999.894 8        50.690               
G09  24848584.364 8 130580199.307 8     -2597.641 8        48.272               
G04  25473684.457 7 133865116.105 7     -2838.921 7        47.379               
G21  20928364.673 9 109979276.245 9      2073.883 9        54.347               
G16  22765822.492 8 119635218.639 8     -2352.501 8        52.411               
G10  25252665.934 7 132703654.850 7      1427.586 7        47.258               
G08  20290933.952 9 106629577.787 9      -157.195 9        57.222               
> 2022 06 08 00 01 00.0000000  0  7                                             
G01  23402895.858 8 122983047.182 8      4000.767 8        50.610               
G09  24849080.577 7 130582798.261 7     -2598.416 7        46.709               
G04  25474224.424 7 133867952.819 7     -2837.073 7        47.709               
G21  20927968.534 8 109977201.921 8      2074.475 8        53.957               
G16  22766269.950 8 119637570.366 8     -2349.743 8        51.112               
G10  25252392.297 7 132702229.650 7      1427.187 7        47.962               
G08  20290965.759 9 106629735.213 9      -156.759 9        56.142               
> 2022 06 08 00 01 01.0000000  0  7                                             
G01  23402136.532 8 122979048.253 8      3998.148 8        50.185               
G09  24849571.064 8 130585397.269 8     -2596.886 8        48.364               
G04  25474765.408 7 133870789.355 7     -2836.045 7        47.146               
G21  20927571.762 9 109975128.165 9      2073.672 9        55.287               
G16  22766717.238 8 119639922.291 8     -2351.074 8        51.150               
G10  25252121.367 8 132700804.827 8      1424.787 8        49.339               
G08  20290999.023 9 106629893.036 9      -158.615 9        58.188               
> 2022 06 08 00 01 02.0000000  0  7                                             
G01  23401374.079 8 122975049.463 8      3999.435 8        50.269               
G09  24850067.010 7 130587996.341 7     -2598.628 7        47.318               
G04  25475301.104 7 133873625.695 7     -2831.235 7        46.054               
G21  20927181.779 9 109973054.969 9      2073.803 9        56.050               
G16  22767164.965 8 119642274.410 8     -2352.770 8        52.147               
G10  25251851.009 8 132699380.381 8      1424.213 8        49.698               
G08  20291023.878 9 106630051.252 9      -158.197 9        59.144               
> 2022 06 08 00 01 03.0000000  0  7                                             
G01  23400613.484 8 122971050.812 8      3998.041 8        51.040               
G09  24850564.689 7 130590595.479 7     -2597.157 7        46.429               
G04  25475843.563 7 133876461.870 7     -2834.585 7        47.257               
G21  20926784.274 9 109970982.343 9      2071.527 9        54.050               
G16  22767612.307 8 119644626.723 8     -2351.848 8        52.719               
G10  25251582.196 8 132697956.301 8      1425.138 8        48.842               
G08  20291050.199 9 106630209.867 9      -159.043 9        57.660               
> 2022 06 08 00 01 04.0000000  0  7                                             
G01  23399852.442 8 122967052.298 8      3998.939 8        50.685               
G09  24851057.177 7 130593194.673 7     -2597.703 7        45.310               
G04  25476384.717 8 133879297.841 8     -2836.741 8        49.140               
G21  20926389.860 9 109968910.276 9      2071.638 9        54.801               
G16  22768059.979 8 119646979.231 8     -2352.006 8        53.483               
G10  25251310.551 7 132696532.600 7      1424.282 7        46.763               
G08  20291084.383 9 106630368.875 9      -159.182 9        55.970               
> 2022 06 08 00 01 05.0000000  0  7                                             
G01  23399092.097 8 122963053.937 8      3999.120 8        50.274               
G09  24851549.514 7 130595793.931 7     -2595.839 7        46.342               
G04  25476922.485 7 133882133.639 7     -2836.046 7        47.361               
G21  20925998.180 9 109966838.774 9      2070.648 9        56.006               
G16  22768508.224 9 119649331.936 9     -2352.703 9        54.406               
G10  25251038.290 7 132695109.272 7      1423.967 7        46.739               
G08  20291116.904 9 106630528.281 9      -159.217 9        59.016               
> 2022 06 08 00 01 06.0000000  0  7                                             
G01  23398330.118 8 122959055.714 8      4000.347 8        49.770               
G09  24852047.934 7 130598393.251 7     -2600.924 7        47.194               
G04  25477463.961 7 133884969.254 7     -2836.821 7        47.994               
G21  20925599.951 9 109964767.841 9      2070.832 9        54.777               
G16  22768955.119 8 119651684.833 8     -2353.429 8        53.981               
G10  25250765.841 8 132693686.321 8      1420.581 8        48.267               
G08  20291149.891 9 106630688.082 9      -159.706 9        57.376               
> 2022 06 08 00 01 07.0000000  0  7                                             
G01  23397568.263 8 122955057.624 8      3996.792 8        51.644               
G09  24852542.424 7 130600992.622 7     -2599.283 7        47.080               
G04  25477997.039 8 133887804.686 8     -2835.155 8        48.209               
G21  20925209.513 9 109962697.473 9      2069.640 9        55.626               
G16  22769404.239 8 119654037.925 8     -2353.524 8        53.067               
G10  25250496.349 8 132692263.750 8      1420.722 8        48.408               
G08  20291175.300 9 106630848.279 9      -160.162 9        57.067               
> 2022 06 08 00 01 08.0000000  0  7                                             
G01  23396808.490 8 122951059.681 8      3998.751 8        50.219               
G09  24853033.884 8 130603592.061 8     -2599.340 8        49.217               
G04  25478540.472 8 133890639.926 8     -2837.392 8        48.276               
G21  20924815.921 9 109960627.664 9      2070.385 9        55.065               
G16  22769851.876 8 119656391.213 8     -2353.830 8        52.665               
G10  25250227.894 8 132690841.547 8      1422.443 8        48.510               
G08  20291201.273 9 106631008.873 9      -160.639 9        57.266               
> 2022 06 08 00 01 09.0000000  0  7                                             
G01  23396047.261 8 122947061.872 8      3998.119 8        51.352               
G09  24853531.215 7 130606191.558 7     -2598.358 7        47.084               
G04  25479080.527 8 133893474.994 8     -2836.315 8        48.170               
G21  20924418.388 9 109958558.427 9      2069.591 9        54.745               
G16  22770300.219 8 119658744.694 8     -2352.706 8        52.630               
G10  25249957.214 7 132689419.722 7      1422.388 7        47.258               
G08  20291236.287 9 106631169.861 9      -162.046 9        56.884               
> 2022 06 08 00 01 10.0000000  0  7                                             
G01  23395285.647 8 122943064.215 8      3996.808 8        51.356               
G09  24854027.884 7 130608791.110 7     -2597.517 7        46.720               
G04  25479621.825 8 133896309.867 8     -2835.022 8        49.112               
G21  20924029.496 9 109956489.752 9      2068.118 9        54.609               
G16  22770747.391 8 119661098.372 8     -2353.154 8        51.486               
G10  25249684.970 7 132687998.274 7      1421.085 7        47.416               
G08  20291270.310 9 106631331.245 9      -161.402 9        56.863               
> 2022 06 08 00 01 11.0000000  0  7                                             
G01  23394526.321 8 122939066.695 8      3997.868 8        49.927               
G09  24854517.764 7 130611390.733 7     -2597.349 7        46.036               
G04  25480164.980 7 133899144.556 7     -2835.665 7        47.576               
G21  20923632.250 9 109954421.641 9      2067.835 9        54.348               
G16  22771195.475 8 119663452.241 8     -2352.692 8        52.024               
G10  25249413.477 8 132686577.194 8      1421.633 8        48.207               
G08  20291301.634 9 106631493.025 9      -161.460 9        57.049               
> 2022 06 08 00 01 12.0000000  0  7                                             
G01  23393766.030 8 122935069.323 8      3996.150 8        51.086               
G09  24855013.638 7 130613990.407 7     -2599.014 7        47.199               
G04  25480699.755 8 133901979.063 8     -2835.141 8        48.600               
G21  20923237.684 9 109952354.096 9      2067.779 9        55.690               
G16  22771643.755 8 119665806.307 8     -2354.430 8        51.414               
G10  25249144.986 7 132685156.500 7      1420.793 7        47.975               
G08  20291328.331 9 106631655.201 9      -162.569 9        56.979               
> 2022 06 08 00 01 13.0000000  0  7                                             
G01  23393004.890 8 122931072.078 8      3996.543 8        50.415               
G09  24855510.602 7 130616590.143 7     -2599.292 7        47.810               
G04  25481240.892 8 133904813.386 8     -2834.656 8        48.327               
G21  20922848.639 8 109950287.117 8      2066.229 8        52.957               
G16  22772092.205 8 119668160.567 8     -2355.583 8        52.502               
G10  25248876.853 7 132683736.175 7      1419.855 7        47.991               
G08  20291354.616 9 106631817.771 9      -162.556 9        55.356               
> 2022 06 08 00 01 14.0000000  0  7                                             
G01  23392244.768 8 122927074.991 8      3998.762 8        50.055               
G09  24856005.020 7 130619189.941 7     -2602.937 7        45.075               
G04  25481777.231 8 133907647.528 8     -2833.579 8        48.274               
G21  20922450.696 8 109948220.704 8      2065.801 8        53.297               
G16  22772539.850 8 119670515.022 8     -2354.779 8        52.240               
G10  25248604.886 7 132682316.228 7      1420.193 7        46.554               
G08  20291391.623 9 106631980.738 9      -163.130 9        56.327               
> 2022 06 08 00 01 15.0000000  0  7                                             
G01  23391484.155 8 122923078.031 8      3997.132 8        51.231               
G09  24856497.839 7 130621789.794 7     -2595.090 7        46.036               
G04  25482317.367 8 133910481.481 8     -2836.400 8        49.192               
G21  20922061.321 8 109946154.855 8      2066.066 8        53.325               
G16  22772987.818 8 119672869.669 8     -2354.080 8        51.920               
G10  25248333.465 7 132680896.655 7      1417.280 7        47.773               
G08  20291426.852 9 106632144.100 9      -163.214 9        56.351               
> 2022 06 08 00 01 16.0000000  0  7                                             
G01  23390723.971 8 122919081.223 8      3994.801 8        49.092               
G09  24856994.955 7 130624389.713 7     -2596.739 7        44.487               
G04  25482855.582 8 133913315.245 8     -2832.070 8        48.259               
G21  20921668.033 9 109944089.569 9      2064.719 9        54.384               
G16  22773436.223 8 119675224.516 8     -2355.846 8        52.808               
G10  25248062.097 7 132679477.456 7      1419.027 7        46.749               
G08  20291454.888 9 106632307.858 9      -164.575 9        55.877               
> 2022 06 08 00 01 17.0000000  0  7                                             
G01  23389962.956 8 122915084.556 8      3994.832 8        50.409               
G09  24857488.230 7 130626989.690 7     -2603.248 7        45.893               
G04  25483395.619 8 133916148.828 8     -2833.423 8        50.252               
G21  20921271.716 9 109942024.854 9      2064.369 9        54.984               
G16  22773884.343 8 119677579.554 8     -2356.142 8        53.332               
G10  25247793.811 7 132678058.636 7      1420.379 7        46.716               
G08  20291483.925 9 106632472.010 9      -164.074 9        58.834               
> 2022 06 08 00 01 18.0000000  0  7                                             
G01  23389202.335 8 122911088.029 8      3996.944 8        49.622               
G09  24857980.110 7 130629589.717 7     -2597.869 7        45.974               
G04  25483935.219 8 133918982.231 8     -2831.415 8        51.126               
G21  20920884.432 9 109939960.699 9      2064.113 9        55.998               
G16  22774332.721 8 119679934.786 8     -2356.567 8        51.712               
G10  25247526.115 7 132676640.197 7      1415.206 7        47.204               
G08  20291510.773 9 106632636.558 9      -165.519 9        56.168               
> 2022 06 08 00 01 19.0000000  0  7                                             
G01  23388441.150 8 122907091.650 8      3995.416 8        51.654               
G09  24858477.539 7 130632189.809 7     -2602.650 7        47.582               
G04  25484474.274 7 133921815.444 7     -2832.495 7        47.259               
G21  20920487.498 9 109937897.114 9      2063.267 9        56.090               
G16  22774780.706 8 119682290.216 8     -2354.919 8        49.308               
G10  25247255.141 7 132675222.130 7      1412.061 7        45.417               
G08  20291549.379 9 106632801.501 9      -165.231 9        56.920               
> 2022 06 08 00 01 20.0000000  0  7                                             
G01  23387681.600 8 122903095.142 8      4000.531 8        50.413               
G09  24858973.833 8 130634789.413 8     -2596.604 8        48.601               
G04  25485012.462 7 133924648.042 7     -2830.541 7        46.804               
G21  20920095.443 9 109935834.055 9      2062.917 9        55.785               
G16  22775229.281 8 119684646.324 8     -2361.259 8        51.350               
G10  25246984.961 7 132673805.013 7      1411.857 7        46.138               
G08  20291586.270 9 106632966.840 9      -165.949 9        56.944               
> 2022 06 08 00 01 21.0000000  0  7                                             
G01  23386917.351 8 122899082.876 8      4029.824 8        50.106               
G09  24859459.674 7 130637354.984 7     -2530.272 7        47.579               
G04  25485548.041 8 133927453.844 8     -2776.374 8        48.994               
G21  20919704.915 9 109933768.859 9      2067.862 9        56.181               
G16  22775683.190 8 119687031.968 8     -2414.600 8        53.180               
G10  25246720.115 7 132672423.977 7      1347.500 7        46.661               
G08  20291612.725 9 106633132.494 9      -166.084 9        57.678               
> 2022 06 08 00 01 22.0000000  0  7                                             
G01  23386148.394 8 122895044.743 8      4039.560 8        49.837               
G09  24859935.616 7 130639862.472 7     -2499.047 7        47.256               
G04  25486072.015 7 133930213.530 7     -2751.924 7        47.336               
G21  20919308.589 9 109931703.067 9      2059.720 9        55.841               
G16  22776146.489 8 119689470.952 8     -2449.637 8        52.781               
G10  25246471.262 7 132671105.569 7      1308.762 7        47.684               
G08  20291641.959 9 106633303.018 9      -179.018 9        57.106               
> 2022 06 08 00 01 23.0000000  0  7                                             
G01  23385380.660 8 122891007.698 8      4038.858 8        52.089               
G09  24860413.719 7 130642364.036 7     -2502.173 7        47.409               
G04  25486596.015 7 133932965.138 7     -2752.176 7        46.501               
G21  20918921.046 9 109929651.533 9      2047.157 9        56.117               
G16  22776613.318 8 119691928.048 8     -2458.495 8        53.055               
G10  25246223.044 7 132669799.198 7      1303.373 7        46.953               
G08  20291679.064 9 106633494.696 9      -199.663 9        58.660               
> 2022 06 08 00 01 24.0000000  0  7                                             
G01  23384609.942 8 122886956.711 8      4068.965 8        52.569               
G09  24860891.117 8 130644865.905 8     -2499.940 8        48.560               
G04  25487116.111 7 133935703.615 7     -2721.088 7        47.528               
G21  20918528.482 9 109927594.358 9      2068.864 9        56.047               
G16  22777079.690 9 119694380.018 9     -2443.107 9        55.315               
G10  25245971.108 7 132668487.816 7      1315.933 7        46.409               
G08  20291722.128 9 106633703.612 9      -220.578 9        60.123               
> 2022 06 08 00 01 25.0000000  0  7                                             
G01  23383834.257 8 122882868.627 8      4097.243 8        51.148               
G09  24861364.003 7 130647351.666 7     -2479.140 7        47.346               
G04  25487630.068 7 133938404.368 7     -2691.576 7        46.809               
G21  20918132.022 8 109925518.647 8      2077.153 8        53.338               
G16  22777546.492 8 119696831.016 8     -2457.457 8        52.949               
G10  25245726.195 7 132667181.476 7      1302.433 7        46.565               
G08  20291765.076 9 106633938.433 9      -244.578 9        57.504               
> 2022 06 08 00 01 26.0000000  0  7                                             
G01  23383053.640 8 122878773.553 8      4095.597 8        51.624               
G09  24861835.843 8 130649831.370 8     -2481.012 8        48.745               
G04  25488143.776 8 133941094.535 8     -2690.193 8        48.447               
G21  20917741.101 9 109923444.229 9      2072.150 9        56.870               
G16  22778014.803 8 119699288.673 8     -2462.253 8        52.394               
G10  25245477.334 7 132665881.360 7      1302.675 7        47.329               
G08  20291804.978 9 106634184.949 9      -245.518 9        57.486               
> 2022 06 08 00 01 27.0000000  0  7                                             
G01  23382273.666 8 122874681.056 8      4095.278 8        52.220               
G09  24862304.709 8 130652308.104 8     -2470.980 8        48.402               
G04  25488654.580 8 133943785.401 8     -2689.874 8        48.722               
G21  20917342.872 9 109921372.381 9      2075.273 9        55.304               
G16  22778484.606 8 119701750.919 8     -2460.618 8        53.296               
G10  25245229.365 7 132664586.325 7      1296.671 7        47.450               
G08  20291859.854 9 106634428.461 9      -238.524 9        57.471               
> 2022 06 08 00 01 28.0000000  0  7                                             
G01  23381493.567 8 122870582.610 8      4104.104 8        50.280               
G09  24862775.790 8 130654783.366 8     -2476.460 8        48.125               
G04  25489170.369 8 133946475.401 8     -2692.018 8        48.406               
G21  20916946.876 9 109919288.343 9      2093.807 9        56.853               
G16  22778951.560 9 119704203.305 9     -2441.674 9        54.268               
G10  25244983.059 8 132663288.008 8      1306.477 8        48.967               
G08  20291903.177 9 106634658.071 9      -222.792 9        59.085               
> 2022 06 08 00 01 29.0000000  0  7                                             
G01  23380715.085 8 122866469.020 8      4123.178 8        52.123               
G09  24863249.676 8 130657274.366 8     -2491.461 8        48.040               
G04  25489678.475 7 133949167.686 7     -2687.031 7        47.656               
G21  20916545.860 9 109917175.332 9      2125.418 9        54.612               
G16  22779410.374 9 119706615.184 9     -2395.726 9        54.193               
G10  25244730.542 8 132661958.774 8      1340.171 8        48.848               
G08  20291940.809 9 106634872.912 9      -210.899 9        56.325               
> 2022 06 08 00 01 30.0000000  0  7                                             
G01  23379932.046 8 122862345.361 8      4122.643 8        50.346               
G09  24863726.717 7 130659772.066 7     -2499.601 7        45.987               
G04  25490191.066 8 133951857.693 8     -2692.440 8        48.172               
G21  20916137.535 9 109915048.206 9      2125.561 9        55.095               
G16  22779865.721 8 119709008.121 8     -2394.946 8        51.727               
G10  25244473.327 8 132660615.129 8      1343.501 8        48.232               
G08  20291982.212 9 106635085.027 9      -215.800 9        55.524               
> 2022 06 08 00 01 31.0000000  0  7                                             
G01  23379140.663 8 122858223.835 8      4121.681 8        49.762               
G09  24864203.873 7 130662272.441 7     -2502.770 7        47.674               
G04  25490703.719 7 133954548.363 7     -2688.790 7        46.991               
G21  20915735.821 9 109912925.684 9      2121.616 9        55.094               
G16  22780321.363 8 119711402.362 8     -2391.463 8        52.635               
G10  25244219.756 7 132659270.500 7      1346.996 7        47.778               
G08  20292028.189 9 106635303.715 9      -220.221 9        57.883               
> 2022 06 08 00 01 32.0000000  0  7                                             
G01  23378356.669 8 122854101.623 8      4123.002 8        51.544               
G09  24864681.709 7 130664785.261 7     -2529.615 7        47.282               
G04  25491215.979 7 133957244.421 7     -2706.959 7        45.424               
G21  20915334.036 9 109910797.996 9      2134.972 9        55.850               
G16  22780773.137 9 119713780.195 9     -2357.475 9        54.283               
G10  25243961.058 8 132657909.652 8      1382.414 8        48.940               
G08  20292066.473 9 106635523.021 9      -216.792 9        58.470               
> 2022 06 08 00 01 33.0000000  0  7                                             
G01  23377573.854 8 122849980.367 8      4119.957 8        52.050               
G09  24865160.875 7 130667319.848 7     -2537.964 7        47.467               
G04  25491732.180 7 133959952.186 7     -2707.331 7        46.947               
G21  20914925.961 9 109908661.832 9      2134.900 9        54.676               
G16  22781220.559 8 119716130.006 8     -2347.507 8        53.730               
G10  25243693.871 7 132656520.913 7      1391.006 7        46.680               
G08  20292101.899 9 106635740.343 9      -218.679 9        56.460               
> 2022 06 08 00 01 34.0000000  0  7                                             
G01  23376790.449 8 122845861.126 8      4118.833 8        51.244               
G09  24865643.589 7 130669859.031 7     -2542.833 7        46.697               
G04  25492247.227 7 133962662.485 7     -2708.875 7        44.846               
G21  20914517.493 9 109906527.579 9      2135.360 9        54.033               
G16  22781667.437 9 119718476.913 9     -2343.758 9        54.935               
G10  25243429.097 7 132655128.054 7      1396.569 7        47.558               
G08  20292150.627 9 106635960.559 9      -219.716 9        58.397               
> 2022 06 08 00 01 35.0000000  0  7                                             
G01  23376005.713 8 122841743.636 8      4114.227 8        48.882               
G09  24866132.200 7 130672413.085 7     -2560.413 7        46.931               
G04  25492765.456 7 133965383.472 7     -2727.710 7        45.522               
G21  20914112.653 9 109904384.811 9      2149.282 9        55.441               
G16  22782110.142 9 119720802.069 9     -2309.712 9        54.780               
G10  25243162.509 8 132653715.585 8      1426.109 8        48.425               
G08  20292195.309 9 106636171.553 9      -202.189 9        60.491               
> 2022 06 08 00 01 36.0000000  0  7                                             
G01  23375222.129 8 122837623.058 8      4121.453 8        49.455               
G09  24866621.963 7 130674977.433 7     -2569.153 7        45.623               
G04  25493284.283 7 133968114.158 7     -2738.898 7        44.926               
G21  20913701.942 9 109902222.587 9      2174.661 9        56.740               
G16  22782547.826 8 119723099.934 8     -2285.859 8        53.338               
G10  25242890.891 7 132652284.333 7      1437.239 7        47.440               
G08  20292223.935 9 106636357.518 9      -165.219 9        59.527               
> 2022 06 08 00 01 37.0000000  0  7                                             
G01  23374442.379 8 122833530.284 8      4067.863 8        50.192               
G09  24867109.564 7 130677560.159 7     -2601.300 7        45.532               
G04  25493809.212 7 133970877.379 7     -2790.388 7        44.678               
G21  20913288.748 9 109900069.458 9      2135.136 9        54.096               
G16  22782982.186 8 119725387.978 8     -2284.865 8        52.881               
G10  25242616.092 7 132650840.759 7      1456.051 7        46.038               
G08  20292250.203 9 106636518.618 9      -158.593 9        59.647               
> 2022 06 08 00 01 38.0000000  0  7                                             
G01  23373672.626 8 122829479.222 8      4051.568 8        49.979               
G09  24867612.586 7 130680193.393 7     -2658.417 7        44.865               
G04  25494344.175 7 133973693.048 7     -2833.006 7        45.818               
G21  20912882.701 9 109897935.184 9      2145.968 9        54.859               
G16  22783410.721 8 119727645.196 8     -2225.157 8        53.072               
G10  25242332.252 7 132649353.314 7      1519.366 7        46.567               
G08  20292283.501 9 106636671.690 9      -145.624 9        58.614               
> 2022 06 08 00 01 39.0000000  0  7                                             
G01  23372901.497 8 122825427.906 8      4051.414 8        51.734               
G09  24868121.746 7 130682860.357 7     -2668.592 7        45.970               
G04  25494888.189 7 133976528.309 7     -2840.282 7        44.442               
G21  20912475.672 9 109895781.366 9      2155.891 9        57.583               
G16  22783829.267 8 119729853.521 8     -2202.649 8        51.179               
G10  25242039.512 8 132647820.136 8      1537.224 8        49.111               
G08  20292312.637 9 106636812.605 9      -138.521 9        59.224               
> 2022 06 08 00 01 40.0000000  0  7                                             
G01  23372131.315 8 122821377.733 8      4051.440 8        51.061               
G09  24868626.376 7 130685531.011 7     -2674.072 7        46.338               
G04  25495429.361 7 133979366.883 7     -2840.712 7        47.325               
G21  20912066.114 9 109893625.659 9      2156.068 9        56.991               
G16  22784248.724 8 119732056.435 8     -2203.010 8        53.755               
G10  25241745.844 8 132646282.511 8      1538.242 8        48.926               
G08  20292343.595 9 106636949.806 9      -136.607 9        57.455               
> 2022 06 08 00 01 41.0000000  0  7                                             
G01  23371360.562 8 122817327.525 8      4050.975 8        50.778               
G09  24869138.189 7 130688202.199 7     -2668.021 7        46.171               
G04  25495971.337 7 133982206.472 7     -2840.156 7        47.338               
G21  20911651.928 9 109891468.179 9      2159.348 9        55.357               
G16  22784669.754 8 119734256.977 8     -2199.019 8        51.361               
G10  25241453.042 7 132644743.918 7      1535.820 7        46.671               
G08  20292364.118 9 106637083.408 9      -131.040 9        55.555               
> 2022 06 08 00 01 42.0000000  0  7                                             
G01  23370590.657 8 122813283.007 8      4031.278 8        49.426               
G09  24869645.232 7 130690878.461 7     -2686.785 7        47.303               
G04  25496507.819 7 133985052.445 7     -2857.971 7        46.836               
G21  20911242.352 8 109889313.683 8      2141.339 8        53.750               
G16  22785088.765 8 119736455.134 8     -2198.001 8        51.877               
G10  25241159.275 7 132643201.827 7      1546.672 7        46.937               
G08  20292387.615 9 106637214.796 9      -135.669 9        56.637               
> 2022 06 08 00 01 43.0000000  0  7                                             
G01  23369825.095 8 122809263.091 8      4015.452 8        49.593               
G09  24870157.814 7 130693572.666 7     -2696.033 7        46.091               
G04  25497051.895 7 133987920.102 7     -2872.190 7        47.247               
G21  20910840.209 9 109887181.245 9      2128.382 9        54.835               
G16  22785505.229 8 119738655.783 8     -2202.618 8        53.810               
G10  25240864.445 7 132641651.381 7      1550.491 7        47.338               
G08  20292409.156 9 106637353.741 9      -140.576 9        57.194               
> 2022 06 08 00 01 44.0000000  0  7                                             
G01  23369062.087 8 122805256.049 8      3995.526 8        49.855               
G09  24870670.735 8 130696258.804 8     -2666.521 8        48.106               
G04  25497598.383 7 133990789.925 7     -2864.801 7        47.227               
G21  20910435.619 9 109885068.281 9      2089.643 9        54.482               
G16  22785928.180 8 119740880.800 8     -2259.550 8        51.412               
G10  25240573.368 7 132640119.728 7      1501.272 7        46.444               
G08  20292441.624 9 106637498.242 9      -153.068 9        57.909               
> 2022 06 08 00 01 45.0000000  0  7                                             
G01  23368304.923 8 122801277.836 8      3956.997 8        50.451               
G09  24871172.301 8 130698912.495 8     -2648.050 8        49.870               
G04  25498145.417 7 133993656.702 7     -2875.169 7        46.461               
G21  20910042.357 9 109883006.323 9      2035.260 9        54.209               
G16  22786366.132 8 119743180.599 8     -2328.143 8        53.363               
G10  25240293.619 7 132638649.144 7      1448.770 7        46.491               
G08  20292476.165 9 106637659.224 9      -167.236 9        57.879               
> 2022 06 08 00 01 46.0000000  0  7                                             
G01  23367558.427 8 122797352.290 8      3891.387 8        51.143               
G09  24871681.264 8 130701568.585 8     -2671.390 8        48.441               
G04  25498697.739 7 133996553.896 7     -2927.671 7        47.993               
G21  20909664.303 9 109881002.752 9      1969.894 9        54.570               
G16  22786813.117 9 119745529.258 9     -2363.083 9        54.190               
G10  25240020.884 8 132637206.306 8      1442.279 8        48.416               
G08  20292506.015 9 106637830.384 9      -173.621 9        59.249               
> 2022 06 08 00 01 47.0000000  0  7                                             
G01  23366822.831 8 122793490.848 8      3852.659 8        50.426               
G09  24872191.148 8 130704252.903 8     -2687.032 8        50.193               
G04  25499257.486 7 133999504.840 7     -2958.389 7        47.420               
G21  20909288.839 8 109879052.415 8      1948.963 8        52.421               
G16  22787263.863 9 119747898.163 9     -2365.909 9        54.799               
G10  25239746.720 7 132635761.756 7      1446.651 7        46.724               
G08  20292536.357 9 106637998.476 9      -155.136 9        56.813               
> 2022 06 08 00 01 48.0000000  0  7                                             
G01  23366091.881 8 122789634.829 8      3858.946 8        49.649               
G09  24872701.246 8 130706938.233 8     -2682.761 8        49.475               
G04  25499821.165 8 134002464.633 8     -2957.928 8        48.462               
G21  20908920.594 9 109877097.797 9      1957.305 9        54.831               
G16  22787713.626 8 119750262.003 8     -2364.583 8        53.273               
G10  25239470.956 8 132634316.109 8      1444.132 8        48.745               
G08  20292559.229 9 106638147.044 9      -145.107 9        56.756               
> 2022 06 08 00 01 49.0000000  0  7                                             
G01  23365355.543 8 122785774.624 8      3860.381 8        50.181               
G09  24873213.274 7 130709614.810 7     -2673.385 7        47.981               
G04  25500383.521 7 134005419.684 7     -2953.100 7        47.556               
G21  20908544.156 9 109875138.335 9      1960.956 9        55.144               
G16  22788164.622 8 119752629.467 8     -2369.275 8        52.180               
G10  25239196.041 8 132632878.539 8      1432.343 8        49.369               
G08  20292591.617 9 106638286.889 9      -136.585 9        57.245               
> 2022 06 08 00 01 50.0000000  0  7                                             
G01  23364617.811 8 122781912.153 8      3861.866 8        50.298               
G09  24873717.466 8 130712286.463 8     -2672.138 8        48.889               
G04  25500945.537 7 134008371.840 7     -2952.061 7        46.602               
G21  20908174.544 9 109873176.718 9      1961.987 9        58.169               
G16  22788615.315 8 119754999.410 8     -2369.956 8        53.442               
G10  25238922.583 7 132631445.816 7      1433.060 7        47.861               
G08  20292621.771 9 106638422.597 9      -134.776 9        57.693               
> 2022 06 08 00 01 51.0000000  0  7                                             
G01  23363886.602 8 122778048.236 8      3869.092 8        51.757               
G09  24874228.091 8 130714951.600 8     -2655.701 8        49.336               
G04  25501506.607 7 134011319.201 7     -2937.185 7        46.766               
G21  20907799.205 9 109871217.333 9      1956.641 9        57.348               
G16  22789067.893 8 119757377.215 8     -2388.176 8        51.277               
G10  25238651.894 8 132630021.389 8      1411.450 8        48.731               
G08  20292648.065 9 106638560.073 9      -143.515 9        57.264               
> 2022 06 08 00 01 52.0000000  0  7                                             
G01  23363144.323 8 122774151.523 8      3930.236 8        49.269               
G09  24874730.515 8 130717586.879 8     -2613.674 8        49.807               
G04  25502058.733 7 134014225.914 7     -2874.514 7        46.925               
G21  20907426.332 9 109869246.912 9      1987.992 9        55.531               
G16  22789523.633 8 119759773.033 8     -2400.574 8        49.091               
G10  25238387.977 8 132628621.470 8      1389.080 8        48.070               
G08  20292673.225 9 106638718.621 9      -172.064 9        57.498               
> 2022 06 08 00 01 53.0000000  0  7                                             
G01  23362393.225 8 122770196.803 8      3973.338 8        51.449               
G09  24875218.625 8 130720176.329 8     -2562.934 8        48.067               
G04  25502598.592 7 134017066.724 7     -2809.409 7        46.044               
G21  20907041.711 9 109867249.545 9      1998.204 9        55.410               
G16  22789983.430 8 119762187.720 8     -2435.868 8        52.194               
G10  25238126.991 8 132627254.131 8      1341.820 8        49.937               
G08  20292703.897 9 106638905.432 9      -200.508 9        56.946               
> 2022 06 08 00 01 54.0000000  0  7                                             
G01  23361633.917 8 122766212.021 8      3990.881 8        50.675               
G09  24875701.687 7 130722711.359 7     -2519.518 7        46.037               
G04  25503130.749 8 134019853.957 8     -2770.741 8        48.128               
G21  20906668.069 9 109865258.251 9      1987.544 9        54.816               
G16  22790454.815 8 119764658.226 8     -2490.030 8        51.595               
G10  25237875.530 8 132625946.211 8      1289.426 8        49.044               
G08  20292752.617 9 106639122.414 9      -225.953 9        57.733               
> 2022 06 08 00 01 55.0000000  0  7                                             
G01  23360875.323 8 122762221.533 8      3985.596 8        52.266               
G09  24876185.232 7 130725233.358 7     -2537.849 7        46.120               
G04  25503657.626 7 134022629.407 7     -2787.732 7        47.064               
G21  20906285.047 9 109863269.592 9      1992.349 9        55.219               
G16  22790928.004 8 119767142.910 8     -2468.859 8        52.593               
G10  25237632.824 7 132624653.394 7      1308.759 7        47.564               
G08  20292798.147 9 106639345.551 9      -214.972 9        57.864               
> 2022 06 08 00 01 56.0000000  0  7                                             
G01  23360118.070 8 122758249.470 8      3956.260 8        51.184               
G09  24876673.020 7 130727801.409 7     -2600.677 7        45.863               
G04  25504193.911 7 134025445.122 7     -2846.807 7        47.453               
G21  20905909.404 9 109861269.806 9      1999.895 9        56.422               
G16  22791391.062 9 119769574.645 9     -2407.340 9        54.463               
G10  25237376.090 7 132623307.237 7      1375.725 7        46.523               
G08  20292829.454 9 106639544.726 9      -185.341 9        58.162               
> 2022 06 08 00 01 57.0000000  0  7                                             
G01  23359370.564 8 122754319.228 8      3914.488 8        52.796               
G09  24877168.921 7 130730422.200 7     -2639.803 7        46.281               
G04  25504741.338 7 134028319.106 7     -2894.205 7        47.001               
G21  20905525.837 9 109859279.502 9      1985.519 9        56.211               
G16  22791845.981 8 119771965.384 8     -2381.284 8        53.546               
G10  25237108.564 8 132621911.683 8      1409.420 8        49.225               
G08  20292858.259 9 106639718.462 9      -164.957 9        57.740               
> 2022 06 08 00 01 58.0000000  0  7                                             
G01  23358624.898 8 122750402.693 8      3925.035 8        50.535               
G09  24877674.919 7 130733066.404 7     -2647.276 7        46.338               
G04  25505291.909 7 134031216.298 7     -2894.576 7        46.937               
G21  20905151.892 8 109857287.803 8      2005.081 8        53.889               
G16  22792296.664 8 119774332.880 8     -2352.754 8        51.190               
G10  25236838.108 7 132620491.462 7      1431.158 7        47.500               
G08  20292895.650 9 106639879.379 9      -158.063 9        56.318               
> 2022 06 08 00 01 59.0000000  0  7                                             
G01  23357873.452 8 122746450.196 8      3974.549 8        48.857               
G09  24878178.360 7 130735712.648 7     -2655.350 7        46.744               
G04  25505839.693 8 134034093.042 8     -2868.914 8        48.705               
G21  20904760.667 9 109855257.296 9      2054.575 9        54.203               
G16  22792740.459 8 119776664.077 8     -2306.335 8        51.914               
G10  25236564.953 7 132619048.706 7      1460.964 7        46.887               
G08  20292930.539 9 106640037.577 9      -155.232 9        56.223               
> 2022 06 08 00 02 00.0000000  0  7                                             
G01  23357114.859 8 122742467.025 8      3991.157 8        50.760               
G09  24878684.769 7 130738385.531 7     -2695.753 7        46.202               
G04  25506388.558 7 134036967.949 7     -2885.554 7        46.588               
G21  20904367.719 9 109853177.687 9      2104.039 9        55.408               
G16  22793170.334 8 119778926.999 8     -2220.683 8        53.271               
G10  25236281.309 7 132617552.399 7      1532.865 7        46.807               
G08  20292953.286 9 106640181.156 9      -131.710 9        57.188               
> 2022 06 08 00 02 01.0000000  0  7                                             
G01  23356354.112 8 122738468.779 8      4003.428 8        50.778               
G09  24879202.845 7 130741091.207 7     -2707.416 7        45.700               
G04  25506933.340 7 134039853.250 7     -2878.203 7        46.572               
G21  20903966.604 9 109851063.204 9      2117.696 9        54.790               
G16  22793587.817 8 119781128.492 8     -2198.559 8        51.113               
G10  25235986.318 8 132616003.340 8      1551.059 8        48.856               
G08  20292975.658 9 106640311.435 9      -135.934 9        56.271               
> 2022 06 08 00 02 02.0000000  0  7                                             
G01  23355591.122 8 122734463.475 8      3999.700 8        49.631               
G09  24879712.487 7 130743789.710 7     -2685.442 7        46.931               
G04  25507482.857 7 134042726.256 7     -2868.729 7        47.614               
G21  20903561.004 8 109848952.308 8      2092.356 8        53.759               
G16  22794008.132 8 119783339.581 8     -2236.488 8        52.916               
G10  25235693.481 8 132614462.474 8      1521.959 8        48.490               
G08  20292999.781 9 106640457.303 9      -157.715 9        56.320               
> 2022 06 08 00 02 03.0000000  0  7                                             
G01  23354833.404 8 122730481.286 8      3969.354 8        49.844               
G09  24880223.524 7 130746458.500 7     -2657.578 7        47.823               
G04  25508026.825 7 134045592.483 7     -2869.165 7        46.178               
G21  20903171.593 9 109846888.311 9      2039.472 9        55.386               
G16  22794442.618 8 119785619.404 8     -2310.761 8        53.064               
G10  25235410.614 7 132612976.841 7      1461.561 7        47.962               
G08  20293035.930 9 106640625.538 9      -174.450 9        57.151               
> 2022 06 08 00 02 04.0000000  0  7                                             
G01  23354084.121 8 122726545.186 8      3902.799 8        49.886               
G09  24880729.994 7 130749121.948 7     -2679.346 7        47.915               
G04  25508577.361 7 134048481.854 7     -2916.843 7        45.238               
G21  20902787.918 9 109844877.963 9      1981.851 9        55.954               
G16  22794886.520 8 119787951.269 8     -2344.303 8        52.564               
G10  25235133.465 7 132611525.074 7      1452.349 7        47.317               
G08  20293073.643 9 106640801.821 9      -177.294 9        57.001               
> 2022 06 08 00 02 05.0000000  0  7                                             
G01  23353348.051 8 122722678.261 8      3847.102 8        49.500               
G09  24881241.290 7 130751819.972 7     -2703.540 7        47.363               
G04  25509139.574 7 134051430.100 7     -2964.085 7        45.986               
G21  20902416.627 9 109842925.475 9      1934.953 9        56.686               
G16  22795333.943 8 119790301.880 8     -2359.816 8        51.406               
G10  25234854.217 7 132610066.738 7      1457.906 7        46.948               
G08  20293104.869 9 106640979.058 9      -176.508 9        55.857               
> 2022 06 08 00 02 06.0000000  0  7                                             
G01  23352616.198 8 122718830.607 8      3849.892 8        49.689               
G09  24881755.721 8 130754508.561 8     -2678.511 8        49.599               
G04  25509701.671 7 134054386.692 7     -2952.542 7        47.675               
G21  20902047.480 9 109840994.124 9      1930.014 9        55.333               
G16  22795786.065 8 119792679.696 8     -2388.886 8        49.273               
G10  25234580.803 7 132608630.790 7      1421.362 7        47.438               
G08  20293135.711 9 106641150.953 9      -168.979 9        55.608               
> 2022 06 08 00 02 07.0000000  0  7                                             
G01  23351887.106 8 122714982.078 8      3845.602 8        49.561               
G09  24882262.093 8 130757186.285 8     -2678.739 8        49.937               
G04  25510262.446 8 134057337.045 8     -2952.615 8        49.183               
G21  20901684.372 9 109839066.786 9      1924.406 9        55.354               
G16  22796241.296 8 119795070.948 8     -2389.647 8        50.944               
G10  25234312.009 7 132607208.934 7      1422.287 7        45.784               
G08  20293163.899 9 106641323.455 9      -176.701 9        57.116               
> 2022 06 08 00 02 08.0000000  0  7                                             
G01  23351152.779 8 122711137.962 8      3841.738 8        48.851               
G09  24882775.033 8 130759870.697 8     -2688.522 8        48.076               
G04  25510824.668 7 134060290.661 7     -2951.832 7        47.338               
G21  20901314.090 9 109837146.091 9      1918.871 9        55.547               
G16  22796696.161 8 119797461.690 8     -2391.706 8        52.093               
G10  25234042.151 7 132605782.524 7      1428.778 7        47.908               
G08  20293206.204 9 106641505.207 9      -185.014 9        57.757               
> 2022 06 08 00 02 09.0000000  0  7                                             
G01  23350421.730 8 122707295.973 8      3842.352 8        49.863               
G09  24883285.274 8 130762555.645 8     -2683.032 8        48.130               
G04  25511386.523 7 134063244.088 7     -2953.894 7        45.826               
G21  20900954.869 9 109835230.487 9      1909.742 9        54.739               
G16  22797151.133 8 119799856.232 8     -2401.643 8        52.003               
G10  25233771.024 8 132604357.800 8      1417.266 8        48.157               
G08  20293245.570 9 106641692.733 9      -192.923 9        57.660               
> 2022 06 08 00 02 10.0000000  0  7                                             
G01  23349691.933 8 122703449.038 8      3865.936 8        50.006               
G09  24883794.219 7 130765235.209 7     -2671.332 7        47.422               
G04  25511947.709 7 134066189.407 7     -2929.339 7        47.397               
G21  20900585.749 9 109833316.201 9      1932.273 9        54.976               
G16  22797607.928 8 119802256.741 8     -2393.286 8        51.539               
G10  25233498.369 7 132602938.924 7      1420.041 7        47.260               
G08  20293275.223 9 106641888.412 9      -196.358 9        57.193               
> 2022 06 08 00 02 11.0000000  0  7                                             
G01  23348947.330 8 122699551.087 8      3914.516 8        50.491               
G09  24884304.406 7 130767900.831 7     -2668.245 7        46.777               
G04  25512500.175 7 134069094.942 7     -2891.571 7        46.793               
G21  20900217.307 9 109831358.198 9      1975.280 9        54.871               
G16  22798059.397 8 119804631.321 8     -2357.571 8        51.342               
G10  25233226.296 7 132601511.340 7      1442.365 7        46.995               
G08  20293309.389 9 106642089.715 9      -208.968 9        58.252               
> 2022 06 08 00 02 12.0000000  0  7                                             
G01  23348202.800 8 122695635.021 8      3914.580 8        50.882               
G09  24884812.512 7 130770591.656 7     -2708.087 7        46.225               
G04  25513051.782 7 134071995.926 7     -2907.453 7        45.884               
G21  20899836.992 8 109829382.150 8      1975.850 8        53.110               
G16  22798503.907 8 119806966.305 8     -2321.643 8        51.476               
G10  25232947.896 7 132600044.484 7      1485.511 7        46.125               
G08  20293359.797 9 106642311.995 9      -232.165 9        55.503               
> 2022 06 08 00 02 13.0000000  0  7                                             
G01  23347455.812 8 122691711.557 8      3933.412 8        50.783               
G09  24885330.651 7 130773295.277 7     -2702.828 7        46.644               
