$GPRMC,000025.00,A,3714.6044591,N,12849.5902558,E,1.18,0.00,080622,0.0,E,A*3E
$GPGGA,000025.00,3714.6044591,N,12849.5902558,E,1,04,1.0,966.393,M,0.000,M,0.0,*7A
$GPGSA,A,3,01,08,16,21,,,,,,,,,4.5,2.5,3.7,1*20
$GPGSV,1,1,04,01,21,190,50,08,74,320,57,16,34,092,54,21,51,173,53,1*69
$GPRMC,000026.00,A,3714.5981309,N,12849.5956344,E,0.65,0.00,080622,0.0,E,A*38
$GPGGA,000026.00,3714.5981309,N,12849.5956344,E,1,04,1.0,979.710,M,0.000,M,0.0,*76
$GPGSA,A,3,01,08,16,21,,,,,,,,,4.5,2.5,3.7,1*20
$GPGSV,1,1,04,01,21,190,52,08,74,320,56,16,34,092,53,21,51,173,56,1*68
$GPRMC,000027.00,A,3714.5990014,N,12849.5950124,E,0.97,0.00,080622,0.0,E,A*39
$GPGGA,000027.00,3714.5990014,N,12849.5950124,E,1,04,1.0,968.394,M,0.000,M,0.0,*72
$GPGSA,A,3,01,08,16,21,,,,,,,,,4.5,2.5,3.7,1*20
$GPGSV,1,1,04,01,21,190,48,08,74,320,57,16,34,092,54,21,51,173,58,1*6B
$GPRMC,000028.00,A,3714.6002286,N,12849.5948836,E,3.37,284.11,080622,0.0,E,A*3A
$GPGGA,000028.00,3714.6002286,N,12849.5948836,E,1,04,1.0,970.319,M,0.000,M,0.0,*7A
$GPGSA,A,3,01,08,16,21,,,,,,,,,4.5,2.5,3.7,1*20
$GPGSV,1,1,04,01,21,190,48,08,74,320,59,16,34,092,53,21,51,173,55,1*6F
$GPRMC,000029.00,A,3714.5987213,N,12849.5957628,E,0.51,284.11,080622,0.0,E,A*3C
$GPGGA,000029.00,3714.5987213,N,12849.5957628,E,1,04,1.0,980.984,M,0.000,M,0.0,*7E
$GPGSA,A,3,01,08,16,21,,,,,,,,,4.5,2.5,3.7,1*20
$GPGSV,1,1,04,01,21,190,49,08,74,320,55,16,34,092,50,21,51,173,54,1*60
$GPRMC,000030.00,A,3714.6049600,N,12849.5905626,E,0.18,284.11,080622,0.0,E,A*3E
$GPGGA,000030.00,3714.6049600,N,12849.5905626,E,1,04,1.0,966.528,M,0.000,M,0.0,*73
$GPGSA,A,3,01,08,16,21,,,,,,,,,4.5,2.5,3.7,1*20
$GPGSV,1,1,04,01,21,190,52,08,74,320,57,16,34,092,52,21,51,173,56,1*68
$GPRMC,000031.00,A,3714.5999537,N,12849.5944055,E,1.33,284.11,080622,0.0,E,A*30
$GPGGA,000031.00,3714.5999537,N,12849.5944055,E,1,04,1.0,975.992,M,0.000,M,0.0,*7A
$GPGSA,A,3,01,08,16,21,,,,,,,,,4.5,2.5,3.7,1*20
$GPGSV,1,1,04,01,21,190,52,08,74,320,58,16,34,092,52,21,51,173,56,1*67
$GPRMC,000032.00,A,3714.5971297,N,12849.5985033,E,0.31,284.11,080622,0.0,E,A*36
$GPGGA,000032.00,3714.5971297,N,12849.5985033,E,1,04,1.0,982.270,M,0.000,M,0.0,*70
$GPGSA,A,3,01,08,16,21,,,,,,,,,4.5,2.5,3.7,1*20
$GPGSV,1,1,04,01,21,190,50,08,74,320,58,16,34,092,53,21,51,173,55,1*67
$GPRMC,000033.00,A,3714.5998202,N,12849.5964401,E,2.10,30.76,080622,0.0,E,A*0B
$GPGGA,000033.00,3714.5998202,N,12849.5964401,E,1,04,1.0,971.387,M,0.000,M,0.0,*75
$GPGSA,A,3,01,08,16,21,,,,,,,,,4.5,2.5,3.7,1*20
$GPGSV,1,1,04,01,21,190,51,08,74,320,58,16,34,092,52,21,51,173,55,1*67
$GPRMC,000034.00,A,3714.5994613,N,12849.5950314,E,0.65,30.76,080622,0.0,E,A*00
$GPGGA,000034.00,3714.5994613,N,12849.5950314,E,1,04,1.0,977.629,M,0.000,M,0.0,*79
$GPGSA,A,3,01,08,16,21,,,,,,,,,4.5,2.5,3.7,1*20
$GPGSV,1,1,04,01,21,190,52,08,74,320,57,16,34,092,52,21,51,173,57,1*69
$GPRMC,000035.00,A,3714.6030282,N,12849.5912261,E,2.32,124.74,080622,0.0,E,A*3A
$GPGGA,000035.00,3714.6030282,N,12849.5912261,E,1,04,1.0,969.117,M,0.000,M,0.0,*70
$GPGSA,A,3,01,08,16,21,,,,,,,,,4.5,2.5,3.7,1*20
$GPGSV,1,1,04,01,21,190,50,08,74,320,57,16,34,092,54,21,51,173,57,1*6D
$GPRMC,000036.00,A,3714.6023365,N,12849.5931125,E,2.05,105.85,080622,0.0,E,A*38
$GPGGA,000036.00,3714.6023365,N,12849.5931125,E,1,04,1.0,966.032,M,0.000,M,0.0,*72
$GPGSA,A,3,01,08,16,21,,,,,,,,,4.5,2.5,3.7,1*20
$GPGSV,1,1,04,01,21,190,49,08,74,320,58,16,34,092,54,21,51,173,56,1*6B
$GPRMC,000037.00,A,3714.5974197,N,12849.5975415,E,0.67,105.85,080622,0.0,E,A*3E
$GPGGA,000037.00,3714.5974197,N,12849.5975415,E,1,04,1.0,981.672,M,0.000,M,0.0,*79
$GPGSA,A,3,01,08,16,21,,,,,,,,,4.5,2.5,3.7,1*20
$GPGSV,1,1,04,01,21,190,51,08,74,320,56,16,34,093,52,21,51,173,53,1*6E
$GPRMC,000038.00,A,3714.5979367,N,12849.5971600,E,0.94,105.85,080622,0.0,E,A*3F
$GPGGA,000038.00,3714.5979367,N,12849.5971600,E,1,04,1.0,972.155,M,0.000,M,0.0,*7A
$GPGSA,A,3,01,08,16,21,,,,,,,,,4.5,2.5,3.7,1*20
$GPGSV,1,1,04,01,21,190,49,08,74,320,58,16,34,093,52,21,51,173,53,1*69
$GPRMC,000039.00,A,3714.6019464,N,12849.5935164,E,1.85,105.85,080622,0.0,E,A*32
$GPGGA,000039.00,3714.6019464,N,12849.5935164,E,1,04,1.0,967.223,M,0.000,M,0.0,*70
$GPGSA,A,3,01,08,16,21,,,,,,,,,4.5,2.5,3.7,1*20
$GPGSV,1,1,04,01,21,190,50,08,74,320,57,16,34,093,53,21,51,173,52,1*6E
$GPRMC,000040.00,A,3714.6000538,N,12849.5936800,E,0.46,105.85,080622,0.0,E,A*3A
$GPGGA,000040.00,3714.6000538,N,12849.5936800,E,1,04,1.0,980.237,M,0.000,M,0.0,*7A
$GPGSA,A,3,01,08,16,21,,,,,,,,,4.5,2.5,3.7,1*20
$GPGSV,1,1,04,01,21,190,50,08,74,320,57,16,34,093,55,21,51,173,55,1*6F
$GPRMC,000041.00,A,3714.6015701,N,12849.5933488,E,1.41,105.85,080622,0.0,E,A*38
$GPGGA,000041.00,3714.6015701,N,12849.5933488,E,1,04,1.0,968.850,M,0.000,M,0.0,*73
$GPGSA,A,3,01,08,16,21,,,,,,,,,4.5,2.5,3.7,1*20
$GPGSV,1,1,04,01,21,190,51,08,74,320,57,16,34,093,52,21,51,173,54,1*68
$GPRMC,000042.00,A,3714.5993545,N,12849.5953518,E,1.60,105.85,080622,0.0,E,A*30
$GPGGA,000042.00,3714.5993545,N,12849.5953518,E,1,04,1.0,974.103,M,0.000,M,0.0,*7A
$GPGSA,A,3,01,08,16,21,,,,,,,,,4.5,2.5,3.7,1*20
$GPGSV,1,1,04,01,21,190,50,08,74,320,56,16,34,093,51,21,51,173,54,1*6B
$GPRMC,000043.00,A,3714.5956612,N,12849.5993532,E,0.94,105.85,080622,0.0,E,A*37
$GPGGA,000043.00,3714.5956612,N,12849.5993532,E,1,04,1.0,984.533,M,0.000,M,0.0,*7F
$GPGSA,A,3,01,08,16,21,,,,,,,,,4.5,2.5,3.7,1*20
$GPGSV,1,1,04,01,21,190,50,08,74,320,58,16,33,093,51,21,51,173,55,1*63
$GPRMC,000044.00,A,3714.6024926,N,12849.5930521,E,0.75,105.85,080622,0.0,E,A*33
$GPGGA,000044.00,3714.6024926,N,12849.5930521,E,1,04,1.0,966.628,M,0.000,M,0.0,*71
$GPGSA,A,3,01,08,16,21,,,,,,,,,4.5,2.5,3.7,1*20
$GPGSV,1,1,04,01,21,190,50,08,74,320,59,16,33,093,52,21,51,173,56,1*62
$GPRMC,000045.00,A,3714.6019150,N,12849.5929202,E,0.80,105.85,080622,0.0,E,A*31
$GPGGA,000045.00,3714.6019150,N,12849.5929202,E,1,04,1.0,975.587,M,0.000,M,0.0,*7D
$GPGSA,A,3,01,08,16,21,,,,,,,,,4.5,2.5,3.7,1*20
$GPGSV,1,1,04,01,21,190,51,08,74,320,58,16,33,093,53,21,51,173,54,1*61
$GPRMC,000046.00,A,3714.5997430,N,12849.5950968,E,0.76,105.85,080622,0.0,E,A*3D
$GPGGA,000046.00,3714.5997430,N,12849.5950968,E,1,04,1.0,976.498,M,0.000,M,0.0,*74
$GPGSA,A,3,01,08,16,21,,,,,,,,,4.5,2.5,3.7,1*20
$GPGSV,1,1,04,01,21,190,51,08,74,320,56,16,33,093,54,21,51,173,55,1*69
$GPRMC,000047.00,A,3714.6005623,N,12849.5949212,E,1.53,105.85,080622,0.0,E,A*35
$GPGGA,000047.00,3714.6005623,N,12849.5949212,E,1,04,1.0,970.856,M,0.000,M,0.0,*72
$GPGSA,A,3,01,08,16,21,,,,,,,,,4.5,2.5,3.7,1*20
$GPGSV,1,1,04,01,21,190,50,08,74,320,59,16,33,093,54,21,51,173,56,1*64
$GPRMC,000048.00,A,3714.5959392,N,12849.5984959,E,1.61,105.85,080622,0.0,E,A*32
$GPGGA,000048.00,3714.5959392,N,12849.5984959,E,1,04,1.0,980.983,M,0.000,M,0.0,*72
$GPGSA,A,3,01,08,16,21,,,,,,,,,4.5,2.5,3.7,1*20
$GPGSV,1,1,04,01,21,190,50,08,74,320,58,16,33,093,54,21,51,173,55,1*66
$GPRMC,000049.00,A,3714.6015115,N,12849.5924361,E,0.54,105.85,080622,0.0,E,A*30
$GPGGA,000049.00,3714.6015115,N,12849.5924361,E,1,04,1.0,967.952,M,0.000,M,0.0,*72
$GPGSA,A,3,01,08,16,21,,,,,,,,,4.5,2.5,3.7,1*20
$GPGSV,1,1,04,01,21,190,52,08,74,320,57,16,33,093,53,21,51,173,56,1*6F
$GPRMC,000050.00,A,3714.6041227,N,12849.5903447,E,0.61,105.85,080622,0.0,E,A*3B
$GPGGA,000050.00,3714.6041227,N,12849.5903447,E,1,04,1.0,968.037,M,0.000,M,0.0,*7A
$GPGSA,A,3,01,08,16,21,,,,,,,,,4.5,2.5,3.7,1*20
$GPGSV,1,1,04,01,21,190,50,08,74,320,57,16,33,093,53,21,51,173,55,1*6E
$GPRMC,000051.00,A,3714.5984996,N,12849.5943588,E,0.82,105.85,080622,0.0,E,A*33
$GPGGA,000051.00,3714.5984996,N,12849.5943588,E,1,04,1.0,979.804,M,0.000,M,0.0,*77
$GPGSA,A,3,01,08,16,21,,,,,,,,,4.5,2.5,3.7,1*20
$GPGSV,1,1,04,01,21,190,51,08,74,320,57,16,33,093,53,21,51,173,55,1*6F
$GPRMC,000052.00,A,3714.6010740,N,12849.5935050,E,0.39,105.85,080622,0.0,E,A*33
$GPGGA,000052.00,3714.6010740,N,12849.5935050,E,1,04,1.0,963.785,M,0.000,M,0.0,*7A
$GPGSA,A,3,01,08,16,21,,,,,,,,,4.5,2.5,3.7,1*20
$GPGSV,1,1,04,01,21,190,51,08,74,320,57,16,33,093,52,21,51,173,54,1*6F
$GPRMC,000053.00,A,3714.5974264,N,12849.5964864,E,0.83,105.85,080622,0.0,E,A*33
$GPGGA,000053.00,3714.5974264,N,12849.5964864,E,1,04,1.0,978.062,M,0.000,M,0.0,*7F
$GPGSA,A,3,01,08,16,21,,,,,,,,,4.5,2.5,3.7,1*20
$GPGSV,1,1,04,01,21,190,50,08,74,321,57,16,33,093,52,21,51,173,54,1*6F
$GPRMC,000054.00,A,3714.5985721,N,12849.5948104,E,1.69,105.85,080622,0.0,E,A*3A
$GPGGA,000054.00,3714.5985721,N,12849.5948104,E,1,04,1.0,981.553,M,0.000,M,0.0,*72
$GPGSA,A,3,01,08,16,21,,,,,,,,,4.5,2.5,3.7,1*20
$GPGSV,1,1,04,01,21,190,51,08,74,321,57,16,33,093,52,21,51,173,56,1*6C
$GPRMC,000055.00,A,3714.6046922,N,12849.5893445,E,0.48,105.85,080622,0.0,E,A*36
$GPGGA,000055.00,3714.6046922,N,12849.5893445,E,1,04,1.0,966.829,M,0.000,M,0.0,*75
$GPGSA,A,3,01,08,16,21,,,,,,,,,4.5,2.5,3.7,1*20
$GPGSV,1,1,04,01,21,190,50,08,74,321,55,16,33,093,52,21,51,173,53,1*6A
$GPRMC,000056.00,A,3714.5974743,N,12849.5957731,E,1.82,105.85,080622,0.0,E,A*39
$GPGGA,000056.00,3714.5974743,N,12849.5957731,E,1,04,1.0,983.217,M,0.000,M,0.0,*71
$GPGSA,A,3,01,08,16,21,,,,,,,,,4.5,2.5,3.7,1*20
$GPGSV,1,1,04,01,21,190,50,08,74,321,56,16,33,093,52,21,51,173,53,1*69
$GPRMC,000057.00,A,3714.5985000,N,12849.5960737,E,0.23,105.85,080622,0.0,E,A*3E
$GPGGA,000057.00,3714.5985000,N,12849.5960737,E,1,04,1.0,972.712,M,0.000,M,0.0,*72
$GPGSA,A,3,01,08,16,21,,,,,,,,,4.5,2.5,3.7,1*20
$GPGSV,1,1,04,01,21,190,51,08,74,321,56,16,33,093,52,21,51,173,53,1*68
$GPRMC,000058.00,A,3714.5998247,N,12849.5945243,E,1.54,105.85,080622,0.0,E,A*3C
$GPGGA,000058.00,3714.5998247,N,12849.5945243,E,1,04,1.0,973.852,M,0.000,M,0.0,*7B
$GPGSA,A,3,01,08,16,21,,,,,,,,,4.5,2.5,3.7,1*20
$GPGSV,1,1,04,01,21,190,49,08,74,321,56,16,33,093,53,21,51,173,54,1*67
$GPRMC,000059.00,A,3714.5981292,N,12849.5949422,E,1.53,105.85,080622,0.0,E,A*37
$GPGGA,000059.00,3714.5981292,N,12849.5949422,E,1,04,1.0,982.686,M,0.000,M,0.0,*7E
$GPGSA,A,3,01,08,16,21,,,,,,,,,4.5,2.5,3.7,1*20
$GPGSV,1,1,04,01,21,190,50,08,74,321,59,16,33,093,53,21,51,173,55,1*61
$GPRMC,000100.00,A,3714.6052106,N,12849.5892455,E,0.66,105.85,080622,0.0,E,A*30
$GPGGA,000100.00,3714.6052106,N,12849.5892455,E,1,04,1.0,964.897,M,0.000,M,0.0,*78
$GPGSA,A,3,01,08,16,21,,,,,,,,,4.5,2.5,3.7,1*20
$GPGSV,1,1,04,01,21,190,50,08,74,321,56,16,33,093,52,21,51,173,56,1*6C
$GPRMC,000101.00,A,3714.5978415,N,12849.5953822,E,0.66,105.85,080622,0.0,E,A*34
$GPGGA,000101.00,3714.5978415,N,12849.5953822,E,1,04,1.0,977.784,M,0.000,M,0.0,*73
$GPGSA,A,3,01,08,16,21,,,,,,,,,4.5,2.5,3.7,1*20
$GPGSV,1,1,04,01,21,190,52,08,74,321,57,16,33,093,49,21,51,173,56,1*65
$GPRMC,000102.00,A,3714.5952247,N,12849.5984396,E,3.24,254.90,080622,0.0,E,A*36
$GPGGA,000102.00,3714.5952247,N,12849.5984396,E,1,04,1.0,979.551,M,0.000,M,0.0,*73
$GPGSA,A,3,01,08,16,21,,,,,,,,,4.5,2.5,3.7,1*20
$GPGSV,1,1,04,01,21,190,50,08,74,321,57,16,33,093,51,21,51,173,56,1*6E
$GPRMC,000103.00,A,3714.5988245,N,12849.5894942,E,27.20,249.49,080622,0.0,E,A*0B
$GPGGA,000103.00,3714.5988245,N,12849.5894942,E,1,04,1.0,968.703,M,0.000,M,0.0,*71
$GPGSA,A,3,01,08,16,21,,,,,,,,,4.5,2.5,3.7,1*20
$GPGSV,1,1,04,01,21,190,50,08,74,321,58,16,33,093,53,21,51,173,56,1*63
$GPRMC,000104.00,A,3714.5944350,N,12849.5777950,E,40.40,249.25,080622,0.0,E,A*05
$GPGGA,000104.00,3714.5944350,N,12849.5777950,E,1,04,1.0,973.404,M,0.000,M,0.0,*7C
$GPGSA,A,3,01,08,16,21,,,,,,,,,4.5,2.5,3.7,1*20
$GPGSV,1,1,04,01,21,190,50,08,74,321,57,16,33,093,53,21,51,173,56,1*6C
$GPRMC,000105.00,A,3714.5924389,N,12849.5644239,E,43.73,246.90,080622,0.0,E,A*01
$GPGGA,000105.00,3714.5924389,N,12849.5644239,E,1,04,1.0,958.648,M,0.000,M,0.0,*79
$GPGSA,A,3,01,08,16,21,,,,,,,,,4.5,2.5,3.7,1*20
$GPGSV,1,1,04,01,21,190,52,08,74,321,59,16,33,093,53,21,51,173,56,1*60
$GPRMC,000106.00,A,3714.5833337,N,12849.5558400,E,46.13,221.29,080622,0.0,E,A*02
$GPGGA,000106.00,3714.5833337,N,12849.5558400,E,1,04,1.0,954.199,M,0.000,M,0.0,*7D
$GPGSA,A,3,01,08,16,21,,,,,,,,,4.5,2.5,3.7,1*20
$GPGSV,1,1,04,01,21,190,52,08,74,321,60,16,33,093,55,21,51,173,56,1*6C
$GPRMC,000107.00,A,3714.5713582,N,12849.5465004,E,59.97,213.70,080622,0.0,E,A*06
$GPGGA,000107.00,3714.5713582,N,12849.5465004,E,1,04,1.0,951.801,M,0.000,M,0.0,*7B
$GPGSA,A,3,01,08,16,21,,,,,,,,,4.5,2.5,3.7,1*20
$GPGSV,1,1,04,01,21,190,51,08,74,321,58,16,33,093,53,21,51,173,53,1*67
$GPRMC,000108.00,A,3714.5659283,N,12849.5289945,E,60.95,216.48,080622,0.0,E,A*0E
$GPGGA,000108.00,3714.5659283,N,12849.5289945,E,1,04,1.0,923.057,M,0.000,M,0.0,*7B
$GPGSA,A,3,01,08,16,21,,,,,,,,,4.5,2.5,3.7,1*20
$GPGSV,1,1,04,01,21,190,52,08,74,321,58,16,33,093,52,21,51,173,57,1*61
$GPRMC,000109.00,A,3714.5457950,N,12849.5234521,E,59.34,217.46,080622,0.0,E,A*00
$GPGGA,000109.00,3714.5457950,N,12849.5234521,E,1,04,1.0,922.579,M,0.000,M,0.0,*73
$GPGSA,A,3,01,08,16,21,,,,,,,,,4.5,2.5,3.7,1*20
$GPGSV,1,1,04,01,21,190,52,08,74,321,58,16,33,093,53,21,51,173,55,1*62
$GPRMC,000110.00,A,3714.5343308,N,12849.5116995,E,55.89,212.99,080622,0.0,E,A*00
$GPGGA,000110.00,3714.5343308,N,12849.5116995,E,1,04,1.0,910.565,M,0.000,M,0.0,*72
$GPGSA,A,3,01,08,16,21,,,,,,,,,4.5,2.5,3.7,1*20
$GPGSV,1,1,04,01,21,190,50,08,74,321,59,16,33,093,54,21,51,173,57,1*64
$GPRMC,000111.00,A,3714.5231267,N,12849.5047826,E,53.96,196.58,080622,0.0,E,A*0B
$GPGGA,000111.00,3714.5231267,N,12849.5047826,E,1,04,1.0,910.086,M,0.000,M,0.0,*7B
$GPGSA,A,3,01,08,16,21,,,,,,,,,4.5,2.5,3.7,1*20
$GPGSV,1,1,04,01,21,190,52,08,74,321,56,16,33,093,54,21,51,173,54,1*6A
$GPRMC,000112.00,A,3714.5048345,N,12849.5034742,E,55.15,194.01,080622,0.0,E,A*0F
$GPGGA,000112.00,3714.5048345,N,12849.5034742,E,1,04,1.0,920.917,M,0.000,M,0.0,*7E
$GPGSA,A,3,01,08,16,21,,,,,,,,,4.5,2.5,3.7,1*20
$GPGSV,1,1,04,01,21,190,50,08,74,321,56,16,33,093,52,21,51,173,55,1*6F
$GPRMC,000113.00,A,3714.4905497,N,12849.4965031,E,54.49,192.69,080622,0.0,E,A*08
$GPGGA,000113.00,3714.4905497,N,12849.4965031,E,1,04,1.0,895.969,M,0.000,M,0.0,*7F
$GPGSA,A,3,01,08,16,21,,,,,,,,,4.5,2.5,3.7,1*20
$GPGSV,1,1,04,01,21,190,50,08,74,321,58,16,33,093,53,21,51,173,55,1*60
$GPRMC,000114.00,A,3714.4803004,N,12849.4912849,E,54.12,179.04,080622,0.0,E,A*01
$GPGGA,000114.00,3714.4803004,N,12849.4912849,E,1,04,1.0,882.145,M,0.000,M,0.0,*76
$GPGSA,A,3,01,08,16,21,,,,,,,,,4.5,2.5,3.7,1*20
$GPGSV,1,1,04,01,21,190,52,08,74,321,58,16,33,093,54,21,51,173,56,1*66
$GPRMC,000115.00,A,3714.4669510,N,12849.4909254,E,53.94,174.31,080622,0.0,E,A*0C
$GPGGA,000115.00,3714.4669510,N,12849.4909254,E,1,04,1.0,886.223,M,0.000,M,0.0,*7E
$GPGSA,A,3,01,08,16,21,,,,,,,,,4.5,2.5,3.7,1*20
$GPGSV,1,1,04,01,21,190,52,08,74,321,56,16,33,093,54,21,51,173,55,1*6B
$GPRMC,000116.00,A,3714.4462764,N,12849.4982153,E,54.43,172.31,080622,0.0,E,A*0B
$GPGGA,000116.00,3714.4462764,N,12849.4982153,E,1,04,1.0,893.219,M,0.000,M,0.0,*7F
$GPGSA,A,3,01,08,16,21,,,,,,,,,4.5,2.5,3.7,1*20
$GPGSV,1,1,04,01,21,190,51,08,74,321,58,16,33,093,55,21,51,173,54,1*66
$GPRMC,000117.00,A,3714.4318584,N,12849.5027894,E,54.11,161.07,080622,0.0,E,A*09
$GPGGA,000117.00,3714.4318584,N,12849.5027894,E,1,04,1.0,882.711,M,0.000,M,0.0,*70
$GPGSA,A,3,01,08,16,21,,,,,,,,,4.5,2.5,3.8,1*2F
$GPGSV,1,1,04,01,21,190,49,08,74,321,60,16,33,093,55,21,51,173,56,1*66
$GPRMC,000118.00,A,3714.4219144,N,12849.5049658,E,55.07,158.76,080622,0.0,E,A*02
$GPGGA,000118.00,3714.4219144,N,12849.5049658,E,1,04,1.0,885.209,M,0.000,M,0.0,*7A
$GPGSA,A,3,01,08,16,21,,,,,,,,,4.5,2.5,3.8,1*2F
$GPGSV,1,1,04,01,21,190,50,08,74,321,60,16,33,093,53,21,51,173,57,1*69
$GPRMC,000119.00,A,3714.4113606,N,12849.5110384,E,36.86,142.27,080622,0.0,E,A*01
$GPGGA,000119.00,3714.4113606,N,12849.5110384,E,1,04,1.0,900.417,M,0.000,M,0.0,*7F
$GPGSA,A,3,01,08,16,21,,,,,,,,,4.5,2.5,3.8,1*2F
$GPGSV,1,1,04,01,21,190,50,08,74,321,60,16,33,093,53,21,51,173,54,1*6A
$GPRMC,000120.00,A,3714.4032779,N,12849.5255438,E,52.29,116.46,080622,0.0,E,A*03
$GPGGA,000120.00,3714.4032779,N,12849.5255438,E,1,04,1.0,912.232,M,0.000,M,0.0,*7E
$GPGSA,A,3,01,08,16,21,,,,,,,,,4.5,2.5,3.8,1*2F
$GPGSV,1,1,04,01,21,190,50,08,74,321,58,16,33,093,53,21,51,173,55,1*60
$GPRMC,000121.00,A,3714.3988114,N,12849.5429200,E,60.68,113.00,080622,0.0,E,A*03
$GPGGA,000121.00,3714.3988114,N,12849.5429200,E,1,04,1.0,916.130,M,0.000,M,0.0,*78
$GPGSA,A,3,01,08,16,21,,,,,,,,,4.5,2.5,3.8,1*2F
$GPGSV,1,1,04,01,21,190,52,08,74,321,59,16,33,093,51,21,51,173,58,1*6C
$GPRMC,000122.00,A,3714.3908660,N,12849.5627510,E,60.33,112.86,080622,0.0,E,A*07
$GPGGA,000122.00,3714.3908660,N,12849.5627510,E,1,04,1.0,930.984,M,0.000,M,0.0,*7E
$GPGSA,A,3,01,08,16,21,,,,,,,,,4.5,2.5,3.8,1*2F
$GPGSV,1,1,04,01,21,190,51,08,74,321,58,16,33,093,54,21,51,173,57,1*64
$GPRMC,000123.00,A,3714.3842409,N,12849.5781917,E,62.09,112.08,080622,0.0,E,A*0F
$GPGGA,000123.00,3714.3842409,N,12849.5781917,E,1,04,1.0,957.629,M,0.000,M,0.0,*72
$GPGSA,A,3,01,08,16,21,,,,,,,,,4.5,2.5,3.8,1*2F
$GPGSV,1,1,04,01,21,190,51,08,74,321,56,16,33,093,51,21,51,173,55,1*6D
$GPRMC,000124.00,A,3714.3802596,N,12849.5943026,E,59.67,103.91,080622,0.0,E,A*00
$GPGGA,000124.00,3714.3802596,N,12849.5943026,E,1,04,1.0,971.491,M,0.000,M,0.0,*78
$GPGSA,A,3,01,08,16,21,,,,,,,,,4.5,2.5,3.8,1*2F
$GPGSV,1,1,04,01,21,190,50,08,74,321,57,16,33,093,52,21,52,173,54,1*6C
$GPRMC,000125.00,A,3714.3837184,N,12849.6089070,E,59.61,99.75,080622,0.0,E,A*31
$GPGGA,000125.00,3714.3837184,N,12849.6089070,E,1,04,1.0,969.669,M,0.000,M,0.0,*7B
$GPGSA,A,3,01,08,16,21,,,,,,,,,4.5,2.5,3.8,1*2F
$GPGSV,1,1,04,01,21,190,50,08,74,321,57,16,33,093,54,21,52,173,55,1*6B
$GPRMC,000126.00,A,3714.3775324,N,12849.6288705,E,37.17,91.51,080622,0.0,E,A*32
$GPGGA,000126.00,3714.3775324,N,12849.6288705,E,1,04,1.0,988.113,M,0.000,M,0.0,*7A
$GPGSA,A,3,01,08,16,21,,,,,,,,,4.5,2.5,3.8,1*2F
$GPGSV,1,1,04,01,21,190,50,08,74,321,58,16,33,093,52,21,52,173,54,1*63
$GPRMC,000127.00,A,3714.3760747,N,12849.6388020,E,18.68,46.04,080622,0.0,E,A*38
$GPGGA,000127.00,3714.3760747,N,12849.6388020,E,1,04,1.0,995.950,M,0.000,M,0.0,*7C
$GPGSA,A,3,01,08,16,21,,,,,,,,,4.5,2.5,3.8,1*2F
$GPGSV,1,1,04,01,21,190,50,08,74,322,58,16,33,093,53,21,52,173,54,1*61
$GPRMC,000128.00,A,3714.3870424,N,12849.6385481,E,40.17,6.39,080622,0.0,E,A*02
$GPGGA,000128.00,3714.3870424,N,12849.6385481,E,1,04,1.0,985.398,M,0.000,M,0.0,*76
$GPGSA,A,3,01,08,16,21,,,,,,,,,4.5,2.5,3.8,1*2F
$GPGSV,1,1,04,01,21,190,51,08,74,322,59,16,33,093,54,21,52,173,54,1*66
$GPRMC,000129.00,A,3714.3979671,N,12849.6409408,E,54.61,3.02,080622,0.0,E,A*02
$GPGGA,000129.00,3714.3979671,N,12849.6409408,E,1,04,1.0,992.592,M,0.000,M,0.0,*75
$GPGSA,A,3,01,08,16,21,,,,,,,,,4.5,2.5,3.8,1*2F
$GPGSV,1,1,04,01,21,190,50,08,74,322,57,16,33,093,55,21,52,173,52,1*6E
$GPRMC,000130.00,A,3714.4187484,N,12849.6381933,E,53.71,1.04,080622,0.0,E,A*0C
$GPGGA,000130.00,3714.4187484,N,12849.6381933,E,1,04,1.0,985.183,M,0.000,M,0.0,*7B
$GPGSA,A,3,01,08,16,21,,,,,,,,,4.5,2.5,3.8,1*2F
$GPGSV,1,1,04,01,21,190,50,08,74,322,57,16,33,093,53,21,52,173,55,1*6F
$GPRMC,000131.00,A,3714.4276932,N,12849.6417922,E,54.14,357.62,080622,0.0,E,A*0C
$GPGGA,000131.00,3714.4276932,N,12849.6417922,E,1,04,1.0,994.891,M,0.000,M,0.0,*75
$GPGSA,A,3,01,08,16,21,,,,,,,,,4.5,2.5,3.8,1*2F
$GPGSV,1,1,04,01,21,190,50,08,74,322,57,16,33,093,52,21,52,173,55,1*6E
$GPRMC,000132.00,A,3714.4438431,N,12849.6398103,E,54.15,356.77,080622,0.0,E,A*02
$GPGGA,000132.00,3714.4438431,N,12849.6398103,E,1,04,1.0,980.447,M,0.000,M,0.0,*7D
$GPGSA,A,3,01,08,16,21,,,,,,,,,4.5,2.5,3.8,1*2F
$GPGSV,1,1,04,01,21,190,50,08,74,322,58,16,33,093,54,21,52,173,58,1*6A
$GPRMC,000133.00,A,3714.4560463,N,12849.6413352,E,52.45,349.70,080622,0.0,E,A*00
$GPGGA,000133.00,3714.4560463,N,12849.6413352,E,1,04,1.0,997.544,M,0.000,M,0.0,*71
$GPGSA,A,3,01,08,16,21,,,,,,,,,4.5,2.5,3.8,1*2F
$GPGSV,1,1,04,01,21,190,52,08,74,322,57,16,33,093,51,21,52,173,57,1*6D
$GPRMC,000134.00,A,3714.4714296,N,12849.6332924,E,28.97,333.59,080622,0.0,E,A*01
$GPGGA,000134.00,3714.4714296,N,12849.6332924,E,1,04,1.0,986.534,M,0.000,M,0.0,*73
$GPGSA,A,3,01,08,16,21,,,,,,,,,4.5,2.5,3.8,1*2F
$GPGSV,1,1,04,01,21,190,49,08,74,322,58,16,33,093,49,21,52,173,56,1*60
$GPRMC,000135.00,A,3714.4738512,N,12849.6279857,E,29.10,285.82,080622,0.0,E,A*0A
$GPGGA,000135.00,3714.4738512,N,12849.6279857,E,1,04,1.0,997.495,M,0.000,M,0.0,*76
$GPGSA,A,3,01,08,16,21,,,,,,,,,4.5,2.5,3.8,1*2F
$GPGSV,1,1,04,01,21,190,52,08,74,322,57,16,33,093,52,21,52,173,56,1*6F
$GPRMC,000136.00,A,3714.4743302,N,12849.6160908,E,46.61,265.50,080622,0.0,E,A*0C
$GPGGA,000136.00,3714.4743302,N,12849.6160908,E,1,04,1.0,971.166,M,0.000,M,0.0,*7F
$GPGSA,A,3,01,08,16,21,,,,,,,,,4.5,2.5,3.8,1*2F
$GPGSV,1,1,04,01,21,190,51,08,74,322,58,16,33,093,52,21,52,173,55,1*60
$GPRMC,000137.00,A,3714.4680127,N,12849.6070487,E,39.80,271.02,080622,0.0,E,A*09
$GPGGA,000137.00,3714.4680127,N,12849.6070487,E,1,04,1.0,975.604,M,0.000,M,0.0,*78
$GPGSA,A,3,01,08,16,21,,,,,,,,,4.5,2.5,3.8,1*2F
$GPGSV,1,1,04,01,21,190,52,08,74,322,58,16,33,093,52,21,52,173,55,1*63
$GPRMC,000138.00,A,3714.4775997,N,12849.5921524,E,21.48,314.05,080622,0.0,E,A*00
$GPGGA,000138.00,3714.4775997,N,12849.5921524,E,1,04,1.0,949.779,M,0.000,M,0.0,*7D
$GPGSA,A,3,01,08,16,21,,,,,,,,,4.5,2.5,3.8,1*2F
$GPGSV,1,1,04,01,21,190,51,08,74,322,58,16,33,093,54,21,52,173,56,1*65
$GPRMC,000139.00,A,3714.4824201,N,12849.5898460,E,30.66,350.87,080622,0.0,E,A*0A
$GPGGA,000139.00,3714.4824201,N,12849.5898460,E,1,04,1.0,961.823,M,0.000,M,0.0,*7B
$GPGSA,A,3,01,08,16,21,,,,,,,,,4.5,2.5,3.8,1*2F
$GPGSV,1,1,04,01,21,190,53,08,74,322,58,16,33,093,54,21,52,173,56,1*67
$GPRMC,000140.00,A,3714.4915001,N,12849.5902741,E,26.90,9.44,080622,0.0,E,A*09
$GPGGA,000140.00,3714.4915001,N,12849.5902741,E,1,04,1.0,947.605,M,0.000,M,0.0,*78
$GPGSA,A,3,01,08,16,21,,,,,,,,,4.5,2.5,3.8,1*2F
$GPGSV,1,1,04,01,21,190,50,08,74,322,56,16,33,093,51,21,52,173,54,1*6D
$GPRMC,000141.00,A,3714.4891946,N,12849.5995292,E,22.14,64.84,080622,0.0,E,A*35
$GPGGA,000141.00,3714.4891946,N,12849.5995292,E,1,04,1.0,968.532,M,0.000,M,0.0,*71
$GPGSA,A,3,01,08,16,21,,,,,,,,,4.5,2.5,3.8,1*2F
$GPGSV,1,1,04,01,21,190,49,08,74,322,56,16,33,093,52,21,52,173,54,1*66
$GPRMC,000142.00,A,3714.4955921,N,12849.6066506,E,54.00,88.12,080622,0.0,E,A*3B
$GPGGA,000142.00,3714.4955921,N,12849.6066506,E,1,04,1.0,967.029,M,0.000,M,0.0,*76
$GPGSA,A,3,01,08,16,21,,,,,,,,,4.5,2.5,3.8,1*2F
$GPGSV,1,1,04,01,21,190,51,08,74,322,57,16,33,093,53,21,52,173,56,1*6D
$GPRMC,000143.00,A,3714.4980192,N,12849.6236229,E,61.82,94.31,080622,0.0,E,A*3F
$GPGGA,000143.00,3714.4980192,N,12849.6236229,E,1,04,1.0,976.948,M,0.000,M,0.0,*7C
$GPGSA,A,3,01,08,16,21,,,,,,,,,4.5,2.5,3.8,1*2F
$GPGSV,1,1,04,01,21,190,51,08,74,322,56,16,33,093,51,21,52,173,55,1*6D
$GPRMC,000144.00,A,3714.4952728,N,12849.6413691,E,46.38,94.24,080622,0.0,E,A*36
$GPGGA,000144.00,3714.4952728,N,12849.6413691,E,1,04,1.0,998.593,M,0.000,M,0.0,*7F
$GPGSA,A,3,01,08,16,21,,,,,,,,,4.5,2.5,3.8,1*2F
$GPGSV,1,1,04,01,21,190,50,08,74,322,56,16,33,093,53,21,52,173,54,1*6F
$GPRMC,000145.00,A,3714.4962901,N,12849.6520716,E,21.38,66.56,080622,0.0,E,A*37
$GPGGA,000145.00,3714.4962901,N,12849.6520716,E,1,04,1.0,995.430,M,0.000,M,0.0,*72
$GPGSA,A,3,01,08,16,21,,,,,,,,,4.5,2.5,3.8,1*2F
$GPGSV,1,1,04,01,21,190,50,08,74,322,57,16,33,093,53,21,52,173,56,1*6C
$GPRMC,000146.00,A,3714.4984539,N,12849.6599360,E,33.84,21.87,080622,0.0,E,A*37
$GPGGA,000146.00,3714.4984539,N,12849.6599360,E,1,04,1.0,999.752,M,0.000,M,0.0,*72
$GPGSA,A,3,01,08,16,21,,,,,,,,,4.5,2.5,3.8,1*2F
$GPGSV,1,1,04,01,21,190,50,08,74,322,57,16,33,093,52,21,52,173,56,1*6D
$GPRMC,000147.00,A,3714.5125144,N,12849.6625041,E,54.16,10.64,080622,0.0,E,A*3B
$GPGGA,000147.00,3714.5125144,N,12849.6625041,E,1,04,1.0,994.931,M,0.000,M,0.0,*7D
$GPGSA,A,3,01,08,16,21,,,,,,,,,4.5,2.5,3.8,1*2F
$GPGSV,1,1,04,01,21,190,50,08,74,322,56,16,33,093,52,21,52,173,57,1*6D
$GPRMC,000148.00,A,3714.5271443,N,12849.6634244,E,54.87,356.64,080622,0.0,E,A*0A
$GPGGA,000148.00,3714.5271443,N,12849.6634244,E,1,04,1.0,995.859,M,0.000,M,0.0,*7B
$GPGSA,A,3,01,08,16,21,,,,,,,,,4.5,2.5,3.8,1*2F
$GPGSV,1,1,04,01,21,190,50,08,74,322,56,16,33,093,49,21,52,173,55,1*65
$GPRMC,000149.00,A,3714.5473756,N,12849.6593443,E,54.95,358.49,080622,0.0,E,A*05
$GPGGA,000149.00,3714.5473756,N,12849.6593443,E,1,04,1.0,985.961,M,0.000,M,0.0,*7D
$GPGSA,A,3,01,08,16,21,,,,,,,,,4.5,2.5,3.8,1*2F
$GPGSV,1,1,04,01,21,190,50,08,74,322,57,16,33,093,51,21,52,173,55,1*6D
$GPRMC,000150.00,A,3714.5544686,N,12849.6645448,E,54.69,0.03,080622,0.0,E,A*04
$GPGGA,000150.00,3714.5544686,N,12849.6645448,E,1,04,1.0,990.452,M,0.000,M,0.0,*76
$GPGSA,A,3,01,08,16,21,,,,,,,,,4.5,2.5,3.8,1*2F
$GPGSV,1,1,04,01,21,190,49,08,74,322,58,16,33,093,52,21,52,173,56,1*6A
$GPRMC,000151.00,A,3714.5721736,N,12849.6636842,E,57.47,356.47,080622,0.0,E,A*03
$GPGGA,000151.00,3714.5721736,N,12849.6636842,E,1,04,1.0,967.642,M,0.000,M,0.0,*75
$GPGSA,A,3,01,08,16,21,,,,,,,,,4.5,2.5,3.8,1*2F
$GPGSV,1,1,04,01,21,190,50,08,74,322,58,16,33,093,52,21,52,173,55,1*61
$GPRMC,000152.00,A,3714.5861198,N,12849.6626238,E,44.50,0.23,080622,0.0,E,A*09
$GPGGA,000152.00,3714.5861198,N,12849.6626238,E,1,04,1.0,976.705,M,0.000,M,0.0,*7B
$GPGSA,A,3,01,08,16,21,,,,,,,,,4.5,2.5,3.8,1*2F
$GPGSV,1,1,04,01,21,190,50,08,74,322,57,16,33,093,52,21,52,173,55,1*6E
$GPRMC,000153.00,A,3714.6008266,N,12849.6586669,E,26.92,32.09,080622,0.0,E,A*34
$GPGGA,000153.00,3714.6008266,N,12849.6586669,E,1,04,1.0,950.546,M,0.000,M,0.0,*74
$GPGSA,A,3,01,08,16,21,,,,,,,,,4.5,2.5,3.8,1*2F
$GPGSV,1,1,04,01,21,190,50,08,74,322,58,16,33,093,51,21,52,173,55,1*62
$GPRMC,000154.00,A,3714.5980704,N,12849.6741648,E,39.23,60.72,080622,0.0,E,A*3D
$GPGGA,000154.00,3714.5980704,N,12849.6741648,E,1,04,1.0,959.750,M,0.000,M,0.0,*7E
$GPGSA,A,3,01,08,16,21,,,,,,,,,4.5,2.5,3.8,1*2F
$GPGSV,1,1,04,01,21,190,51,08,74,322,56,16,33,093,52,21,52,173,53,1*68
$GPRMC,000155.00,A,3714.6061947,N,12849.6816303,E,38.78,78.02,080622,0.0,E,A*36
$GPGGA,000155.00,3714.6061947,N,12849.6816303,E,1,04,1.0,936.657,M,0.000,M,0.0,*7B
$GPGSA,A,3,01,08,16,21,,,,,,,,,4.5,2.5,3.8,1*2F
$GPGSV,1,1,04,01,21,190,51,08,74,322,58,16,33,093,51,21,52,173,56,1*60
$GPRMC,000156.00,A,3714.6033635,N,12849.6955765,E,48.76,103.17,080622,0.0,E,A*0A
$GPGGA,000156.00,3714.6033635,N,12849.6955765,E,1,04,1.0,944.295,M,0.000,M,0.0,*78
$GPGSA,A,3,01,08,16,21,,,,,,,,,4.5,2.5,3.8,1*2F
$GPGSV,1,1,04,01,21,190,50,08,74,322,58,16,33,093,50,21,52,173,56,1*60
$GPRMC,000157.00,A,3714.5999848,N,12849.7141048,E,56.20,110.73,080622,0.0,E,A*0D
$GPGGA,000157.00,3714.5999848,N,12849.7141048,E,1,04,1.0,927.090,M,0.000,M,0.0,*71
$GPGSA,A,3,01,08,16,21,,,,,,,,,4.5,2.5,3.8,1*2F
$GPGSV,1,1,04,01,21,190,50,08,74,322,59,16,33,093,54,21,52,173,55,1*66
$GPRMC,000158.00,A,3714.5905077,N,12849.7323661,E,49.71,115.19,080622,0.0,E,A*0B
$GPGGA,000158.00,3714.5905077,N,12849.7323661,E,1,04,1.0,931.883,M,0.000,M,0.0,*79
$GPGSA,A,3,01,08,16,21,,,,,,,,,4.5,2.5,3.8,1*2F
$GPGSV,1,1,04,01,21,190,50,08,74,322,57,16,33,093,53,21,52,173,53,1*69
$GPRMC,000159.00,A,3714.5868138,N,12849.7415040,E,37.58,140.06,080622,0.0,E,A*01
$GPGGA,000159.00,3714.5868138,N,12849.7415040,E,1,04,1.0,929.173,M,0.000,M,0.0,*70
$GPGSA,A,3,01,08,16,21,,,,,,,,,4.5,2.5,3.8,1*2F
$GPGSV,1,1,04,01,21,190,49,08,74,322,56,16,33,093,53,21,52,173,54,1*67
$GPRMC,000200.00,A,3714.5801039,N,12849.7467330,E,53.62,154.53,080622,0.0,E,A*0E
$GPGGA,000200.00,3714.5801039,N,12849.7467330,E,1,04,1.0,918.774,M,0.000,M,0.0,*72
$GPGSA,A,3,01,08,16,21,,,,,,,,,4.5,2.5,3.8,1*2F
$GPGSV,1,1,04,01,21,190,50,08,74,322,58,16,33,093,53,21,52,173,55,1*60
$GPRMC,000201.00,A,3714.5614369,N,12849.7571606,E,50.97,167.61,080622,0.0,E,A*0D
$GPGGA,000201.00,3714.5614369,N,12849.7571606,E,1,04,1.0,936.524,M,0.000,M,0.0,*72
$GPGSA,A,3,01,08,16,21,,,,,,,,,4.5,2.5,3.8,1*2F
$GPGSV,1,1,04,01,21,190,50,08,74,322,58,16,33,093,54,21,52,173,56,1*64
$GPRMC,000202.00,A,3714.5456421,N,12849.7597646,E,54.63,180.66,080622,0.0,E,A*0C
$GPGGA,000202.00,3714.5456421,N,12849.7597646,E,1,04,1.0,950.532,M,0.000,M,0.0,*75
$GPGSA,A,3,01,08,16,21,,,,,,,,,4.5,2.5,3.8,1*2F
$GPGSV,1,1,04,01,21,190,49,08,74,322,57,16,33,093,53,21,52,173,56,1*64
$GPRMC,000203.00,A,3714.5358734,N,12849.7543553,E,50.67,190.98,080622,0.0,E,A*0D
$GPGGA,000203.00,3714.5358734,N,12849.7543553,E,1,04,1.0,939.984,M,0.000,M,0.0,*7A
$GPGSA,A,3,01,08,16,21,,,,,,,,,4.5,2.5,3.8,1*2F
$GPGSV,1,1,04,01,21,190,49,08,74,323,57,16,33,093,54,21,52,173,54,1*60
$GPRMC,000204.00,A,3714.5253183,N,12849.7463568,E,52.67,206.55,080622,0.0,E,A*0E
$GPGGA,000204.00,3714.5253183,N,12849.7463568,E,1,04,1.0,949.367,M,0.000,M,0.0,*76
$GPGSA,A,3,01,08,16,21,,,,,,,,,4.5,2.5,3.8,1*2F
$GPGSV,1,1,04,01,21,190,50,08,74,323,57,16,33,093,53,21,52,173,56,1*6D
$GPRMC,000205.00,A,3714.5073222,N,12849.7421770,E,56.94,225.71,080622,0.0,E,A*05
$GPGGA,000205.00,3714.5073222,N,12849.7421770,E,1,04,1.0,975.473,M,0.000,M,0.0,*7F
$GPGSA,A,3,01,08,16,21,,,,,,,,,4.5,2.5,3.8,1*2F
$GPGSV,1,1,04,01,22,190,50,08,74,323,58,16,33,093,53,21,52,173,56,1*61
$GPRMC,000206.00,A,3714.4985087,N,12849.7263255,E,59.94,231.79,080622,0.0,E,A*0A
$GPGGA,000206.00,3714.4985087,N,12849.7263255,E,1,04,1.0,976.628,M,0.000,M,0.0,*7D
$GPGSA,A,3,01,08,16,21,,,,,,,,,4.5,2.5,3.8,1*2F
$GPGSV,1,1,04,01,22,190,52,08,74,323,58,16,33,093,54,21,52,173,56,1*64
$GPRMC,000207.00,A,3714.4929693,N,12849.7120430,E,51.02,250.71,080622,0.0,E,A*07
$GPGGA,000207.00,3714.4929693,N,12849.7120430,E,1,04,1.0,988.668,M,0.000,M,0.0,*7D
$GPGSA,A,3,01,08,16,21,,,,,,,,,4.5,2.5,3.8,1*2F
$GPGSV,1,1,04,01,22,190,51,08,74,323,57,16,33,093,56,21,52,173,55,1*69
$GPRMC,000208.00,A,3714.4883610,N,12849.6965157,E,48.16,253.48,080622,0.0,E,A*0A
$GPGGA,000208.00,3714.4883610,N,12849.6965157,E,1,04,1.0,1007.400,M,0.000,M,0.0,*47
$GPGSA,A,3,01,08,16,21,,,,,,,,,4.5,2.5,3.8,1*2F
$GPGSV,1,1,04,01,22,190,52,08,74,323,58,16,33,093,51,21,52,173,55,1*62
$GPRMC,000209.00,A,3714.4894914,N,12849.6815697,E,26.85,232.50,080622,0.0,E,A*07
$GPGGA,000209.00,3714.4894914,N,12849.6815697,E,1,04,1.0,1000.672,M,0.000,M,0.0,*46
$GPGSA,A,3,01,08,16,21,,,,,,,,,4.5,2.5,3.8,1*2F
$GPGSV,1,1,04,01,22,190,51,08,74,323,57,16,33,093,50,21,52,173,56,1*6C
$GPRMC,000210.00,A,3714.4817020,N,12849.6792935,E,36.89,190.17,080622,0.0,E,A*08
$GPGGA,000210.00,3714.4817020,N,12849.6792935,E,1,04,1.0,1005.274,M,0.000,M,0.0,*4B
$GPGSA,A,3,01,08,16,21,,,,,,,,,4.5,2.5,3.8,1*2F
$GPGSV,1,1,04,01,22,190,51,08,74,323,59,16,33,093,53,21,52,173,56,1*61
$GPRMC,000211.00,A,3714.4630142,N,12849.6791375,E,54.89,182.97,080622,0.0,E,A*05
$GPGGA,000211.00,3714.4630142,N,12849.6791375,E,1,04,1.0,1010.668,M,0.000,M,0.0,*44
$GPGSA,A,3,01,08,16,21,,,,,,,,,4.5,2.5,3.8,1*2F
$GPGSV,1,1,04,01,22,190,50,08,74,323,57,16,33,093,53,21,52,173,54,1*6C
$GPRMC,000212.00,A,3714.4487103,N,12849.6831891,E,55.14,178.92,080622,0.0,E,A*0C
$GPGGA,000212.00,3714.4487103,N,12849.6831891,E,1,04,1.0,1037.344,M,0.000,M,0.0,*46
$GPGSA,A,3,01,08,16,21,,,,,,,,,4.5,2.5,3.8,1*2F
$GPGSV,1,1,04,01,22,190,52,08,74,323,60,16,33,093,53,21,52,173,57,1*69
$GPRMC,000213.00,A,3714.4405454,N,12849.6774233,E,54.49,169.43,080622,0.0,E,A*09
$GPGGA,000213.00,3714.4405454,N,12849.6774233,E,1,04,1.0,1015.747,M,0.000,M,0.0,*41
$GPGSA,A,3,01,08,16,21,,,,,,,,,4.5,2.5,3.8,1*2F
$GPGSV,1,1,04,01,22,190,51,08,74,323,58,16,33,093,53,21,52,173,56,1*60
$GPRMC,000214.00,A,3714.4204448,N,12849.6855494,E,54.23,168.53,080622,0.0,E,A*0F
$GPGGA,000214.00,3714.4204448,N,12849.6855494,E,1,04,1.0,1034.775,M,0.000,M,0.0,*49
$GPGSA,A,3,01,08,16,21,,,,,,,,,4.5,2.5,3.8,1*2F
$GPGSV,1,1,04,01,22,190,51,08,73,323,58,16,33,093,52,21,52,173,56,1*66
$GPRMC,000215.00,A,3714.4014174,N,12849.6938255,E,54.13,173.54,080622,0.0,E,A*08
$GPGGA,000215.00,3714.4014174,N,12849.6938255,E,1,04,1.0,1045.416,M,0.000,M,0.0,*40
$GPGSA,A,3,01,08,16,21,,,,,,,,,4.5,2.5,3.8,1*2F
$GPGSV,1,1,04,01,22,190,51,08,73,323,59,16,33,093,51,21,52,173,56,1*64
$GPRMC,000216.00,A,3714.3943022,N,12849.6864961,E,50.04,179.04,080622,0.0,E,A*0C
$GPGGA,000216.00,3714.3943022,N,12849.6864961,E,1,04,1.0,1027.483,M,0.000,M,0.0,*41
$GPGSA,A,3,01,08,16,21,,,,,,,,,4.5,2.5,3.8,1*2F
$GPGSV,1,1,04,01,22,190,50,08,73,323,58,16,33,093,54,21,52,173,57,1*60
$GPRMC,000217.00,A,3714.3842814,N,12849.6856021,E,26.13,164.39,080622,0.0,E,A*09
$GPGGA,000217.00,3714.3842814,N,12849.6856021,E,1,04,1.0,1035.076,M,0.000,M,0.0,*4C
$GPGSA,A,3,01,08,16,21,,,,,,,,,4.5,2.5,3.8,1*2F
$GPGSV,1,1,04,01,22,190,51,08,73,323,57,16,33,093,51,21,52,173,54,1*68
$GPRMC,000218.00,A,3714.3761521,N,12849.6954192,E,28.97,114.12,080622,0.0,E,A*05
$GPGGA,000218.00,3714.3761521,N,12849.6954192,E,1,04,1.0,1037.778,M,0.000,M,0.0,*47
$GPGSA,A,3,01,08,16,21,,,,,,,,,4.5,2.5,3.8,1*2F
$GPGSV,1,1,04,01,22,190,49,08,73,323,58,16,33,093,54,21,52,173,54,1*6B
$GPRMC,000219.00,A,3714.3735567,N,12849.7122588,E,52.63,98.97,080622,0.0,E,A*3E
$GPGGA,000219.00,3714.3735567,N,12849.7122588,E,1,04,1.0,1039.461,M,0.000,M,0.0,*47
$GPGSA,A,3,01,08,16,21,,,,,,,,,4.5,2.5,3.8,1*2F
$GPGSV,1,1,04,01,22,190,48,08,73,323,58,16,33,093,54,21,52,173,54,1*6A
$GPRMC,000220.00,A,3714.3719706,N,12849.7291916,E,53.31,90.74,080622,0.0,E,A*3C
$GPGGA,000220.00,3714.3719706,N,12849.7291916,E,1,04,1.0,1055.113,M,0.000,M,0.0,*4C
$GPGSA,A,3,01,08,16,21,,,,,,,,,4.5,2.5,3.8,1*2F
$GPGSV,1,1,04,01,22,190,51,08,73,323,58,16,33,093,53,21,52,173,56,1*67
$GPRMC,000221.00,A,3714.3792759,N,12849.7409201,E,54.69,86.33,080622,0.0,E,A*30
$GPGGA,000221.00,3714.3792759,N,12849.7409201,E,1,04,1.0,1038.289,M,0.000,M,0.0,*45
$GPGSA,A,3,01,08,16,21,,,,,,,,,4.5,2.5,3.8,1*2F
$GPGSV,1,1,04,01,22,190,49,08,73,323,56,16,33,093,54,21,52,173,55,1*64
$GPRMC,000222.00,A,3714.3733725,N,12849.7665313,E,54.76,84.13,080622,0.0,E,A*37
$GPGGA,000222.00,3714.3733725,N,12849.7665313,E,1,04,1.0,1046.478,M,0.000,M,0.0,*4D
$GPGSA,A,3,01,08,16,21,,,,,,,,,4.5,2.5,3.8,1*2F
$GPGSV,1,1,04,01,22,190,50,08,73,323,58,16,33,093,54,21,52,173,55,1*62
$GPRMC,000223.00,A,3714.3774536,N,12849.7838166,E,54.48,77.07,080622,0.0,E,A*37
$GPGGA,000223.00,3714.3774536,N,12849.7838166,E,1,04,1.0,1036.408,M,0.000,M,0.0,*49
$GPGSA,A,3,01,08,16,21,,,,,,,,,4.5,2.5,3.8,1*2F
$GPGSV,1,1,04,01,22,190,51,08,73,323,58,16,33,093,52,21,52,173,56,1*66
$GPRMC,000224.00,A,3714.3818047,N,12849.7998234,E,54.77,79.17,080622,0.0,E,A*3A
$GPGGA,000224.00,3714.3818047,N,12849.7998234,E,1,04,1.0,1038.243,M,0.000,M,0.0,*40
$GPGSA,A,3,01,08,16,21,,,,,,,,,4.5,2.5,3.8,1*2F
$GPGSV,1,1,04,01,22,190,51,08,73,323,58,16,33,093,52,21,52,173,55,1*65
$GPRMC,000225.00,A,3714.3815936,N,12849.8205503,E,51.67,81.81,080622,0.0,E,A*36
$GPGGA,000225.00,3714.3815936,N,12849.8205503,E,1,04,1.0,1040.207,M,0.000,M,0.0,*4F
$GPGSA,A,3,01,08,16,21,,,,,,,,,4.5,2.5,3.8,1*2F
$GPGSV,1,1,04,01,22,190,51,08,73,323,60,16,33,093,52,21,52,173,56,1*6D
$GPRMC,000226.00,A,3714.3837794,N,12849.8371025,E,42.70,61.32,080622,0.0,E,A*32
$GPGGA,000226.00,3714.3837794,N,12849.8371025,E,1,04,1.0,1037.871,M,0.000,M,0.0,*42
$GPGSA,A,3,01,08,16,21,,,,,,,,,4.5,2.5,3.8,1*2F
$GPGSV,1,1,04,01,22,190,49,08,73,323,57,16,33,093,52,21,52,173,52,1*64
$GPRMC,000227.00,A,3714.3919495,N,12849.8502601,E,54.26,52.22,080622,0.0,E,A*3B
$GPGGA,000227.00,3714.3919495,N,12849.8502601,E,1,04,1.0,1050.624,M,0.000,M,0.0,*41
$GPGSA,A,3,01,08,16,21,,,,,,,,,4.5,2.5,3.8,1*2F
$GPGSV,1,1,04,01,22,190,51,08,73,323,58,16,33,093,55,21,52,173,55,1*62
$GPRMC,000228.00,A,3714.4078082,N,12849.8599446,E,50.88,49.38,080622,0.0,E,A*3D
$GPGGA,000228.00,3714.4078082,N,12849.8599446,E,1,04,1.0,1034.054,M,0.000,M,0.0,*45
$GPGSA,A,3,01,08,16,21,,,,,,,,,4.5,2.5,3.8,1*2F
$GPGSV,1,1,04,01,22,190,49,08,73,323,58,16,33,093,52,21,52,173,57,1*6E
$GPRMC,000229.00,A,3714.4117867,N,12849.8742961,E,42.53,26.33,080622,0.0,E,A*3C
$GPGGA,000229.00,3714.4117867,N,12849.8742961,E,1,04,1.0,1045.336,M,0.000,M,0.0,*42
$GPGSA,A,3,01,08,16,21,,,,,,,,,4.5,2.5,3.8,1*2F
$GPGSV,1,1,04,01,22,190,53,08,73,323,58,16,33,093,53,21,52,173,54,1*67
$GPRMC,000230.00,A,3714.4223082,N,12849.8829251,E,56.60,16.87,080622,0.0,E,A*30
$GPGGA,000230.00,3714.4223082,N,12849.8829251,E,1,04,1.0,1033.512,M,0.000,M,0.0,*46
$GPGSA,A,3,01,08,16,21,,,,,,,,,4.5,2.5,3.8,1*2F
$GPGSV,1,1,04,01,22,190,52,08,73,323,57,16,33,093,51,21,52,173,54,1*6B
$GPRMC,000231.00,A,3714.4410513,N,12849.8816833,E,44.18,12.30,080622,0.0,E,A*3C
$GPGGA,000231.00,3714.4410513,N,12849.8816833,E,1,04,1.0,1019.096,M,0.000,M,0.0,*4F
$GPGSA,A,3,01,08,16,21,,,,,,,,,4.5,2.5,3.8,1*2F
$GPGSV,1,1,04,01,22,190,52,08,73,323,58,16,33,093,52,21,52,173,56,1*65
$GPRMC,000232.00,A,3714.4518156,N,12849.8797263,E,38.61,341.29,080622,0.0,E,A*02
$GPGGA,000232.00,3714.4518156,N,12849.8797263,E,1,04,1.0,1023.089,M,0.000,M,0.0,*4E
$GPGSA,A,3,01,08,16,21,,,,,,,,,4.5,2.5,3.8,1*2F
$GPGSV,1,1,04,01,22,190,50,08,73,323,58,16,33,093,53,21,52,173,55,1*65
$GPRMC,000233.00,A,3714.4626957,N,12849.8741473,E,55.52,329.66,080622,0.0,E,A*06
$GPGGA,000233.00,3714.4626957,N,12849.8741473,E,1,04,1.0,1007.692,M,0.000,M,0.0,*4E
$GPGSA,A,3,01,08,16,21,,,,,,,,,4.5,2.5,3.8,1*2F
$GPGSV,1,1,04,01,22,190,50,08,73,323,57,16,33,093,52,21,52,173,54,1*6A
$GPRMC,000234.00,A,3714.4674028,N,12849.8697950,E,51.25,323.85,080622,0.0,E,A*02
$GPGGA,000234.00,3714.4674028,N,12849.8697950,E,1,04,1.0,1019.196,M,0.000,M,0.0,*45
$GPGSA,A,3,01,08,16,21,,,,,,,,,4.5,2.5,3.8,1*2F
$GPGSV,1,1,04,01,22,190,49,08,73,323,57,16,33,093,52,21,52,173,56,1*60
$GPRMC,000235.00,A,3714.4844294,N,12849.8509486,E,56.55,305.06,080622,0.0,E,A*06
$GPGGA,000235.00,3714.4844294,N,12849.8509486,E,1,04,1.0,998.302,M,0.000,M,0.0,*70
$GPGSA,A,3,01,08,16,21,,,,,,,,,4.5,2.5,3.8,1*2F
$GPGSV,1,1,04,01,22,190,50,08,73,323,57,16,33,093,53,21,52,173,56,1*69
$GPRMC,000236.00,A,3714.4923199,N,12849.8335890,E,58.30,297.05,080622,0.0,E,A*0D
$GPGGA,000236.00,3714.4923199,N,12849.8335890,E,1,04,1.0,993.728,M,0.000,M,0.0,*78
$GPGSA,A,3,01,08,16,21,,,,,,,,,4.5,2.5,3.8,1*2F
$GPGSV,1,1,04,01,22,190,50,08,73,323,56,16,33,093,54,21,52,173,56,1*6F
$GPRMC,000237.00,A,3714.4949571,N,12849.8213727,E,59.39,289.47,080622,0.0,E,A*05
$GPGGA,000237.00,3714.4949571,N,12849.8213727,E,1,04,1.0,979.779,M,0.000,M,0.0,*71
$GPGSA,A,3,01,08,16,21,,,,,,,,,4.5,2.5,3.8,1*2F
$GPGSV,1,1,04,01,22,190,52,08,73,323,58,16,33,093,54,21,52,173,57,1*62
$GPRMC,000238.00,A,3714.5005764,N,12849.8062529,E,33.59,304.05,080622,0.0,E,A*0C
$GPGGA,000238.00,3714.5005764,N,12849.8062529,E,1,04,1.0,963.763,M,0.000,M,0.0,*70
$GPGSA,A,3,01,08,16,21,,,,,,,,,4.5,2.5,3.8,1*2F
$GPGSV,1,1,04,01,22,190,51,08,73,324,59,16,33,093,53,21,52,173,57,1*60
$GPRMC,000239.00,A,3714.5073111,N,12849.8001548,E,39.86,339.81,080622,0.0,E,A*00
$GPGGA,000239.00,3714.5073111,N,12849.8001548,E,1,04,1.0,964.332,M,0.000,M,0.0,*71
$GPGSA,A,3,01,08,16,21,,,,,,,,,4.5,2.5,3.8,1*2F
$GPGSV,1,1,04,01,22,190,52,08,73,324,57,16,33,093,53,21,52,173,54,1*6E
$GPRMC,000240.00,A,3714.5223845,N,12849.7948536,E,54.96,348.61,080622,0.0,E,A*01
$GPGGA,000240.00,3714.5223845,N,12849.7948536,E,1,04,1.0,950.151,M,0.000,M,0.0,*72
$GPGSA,A,3,01,08,16,21,,,,,,,,,4.5,2.5,3.8,1*2F
$GPGSV,1,1,04,01,22,190,50,08,73,324,56,16,33,093,52,21,52,173,54,1*6C
$GPRMC,000241.00,A,3714.5315005,N,12849.7973935,E,55.21,0.95,080622,0.0,E,A*06
$GPGGA,000241.00,3714.5315005,N,12849.7973935,E,1,04,1.0,960.238,M,0.000,M,0.0,*73
$GPGSA,A,3,01,08,16,21,,,,,,,,,4.5,2.5,3.8,1*2F
$GPGSV,1,1,04,01,22,190,52,08,73,324,58,16,33,093,52,21,52,173,54,1*60
$GPRMC,000242.00,A,3714.5516369,N,12849.7939942,E,52.06,5.89,080622,0.0,E,A*0D
$GPGGA,000242.00,3714.5516369,N,12849.7939942,E,1,04,1.0,938.435,M,0.000,M,0.0,*74
$GPGSA,A,3,01,08,16,21,,,,,,,,,4.5,2.5,3.8,1*2F
$GPGSV,1,1,04,01,22,190,51,08,73,324,59,16,33,093,53,21,52,173,56,1*61
$GPRMC,000243.00,A,3714.5608293,N,12849.7988028,E,38.55,26.46,080622,0.0,E,A*33
$GPGGA,000243.00,3714.5608293,N,12849.7988028,E,1,04,1.0,951.037,M,0.000,M,0.0,*7B
$GPGSA,A,3,01,08,16,21,,,,,,,,,4.5,2.5,3.8,1*2F
$GPGSV,1,1,04,01,22,190,52,08,73,324,58,16,33,093,53,21,52,173,55,1*60
$GPRMC,000244.00,A,3714.5747542,N,12849.8052159,E,53.85,42.29,080622,0.0,E,A*38
$GPGGA,000244.00,3714.5747542,N,12849.8052159,E,1,04,1.0,939.761,M,0.000,M,0.0,*71
$GPGSA,A,3,01,08,16,21,,,,,,,,,4.5,2.5,3.8,1*2F
$GPGSV,1,1,04,01,22,190,49,08,73,324,58,16,33,093,54,21,52,173,54,1*6C
$GPRMC,000245.00,A,3714.5805236,N,12849.8228357,E,54.25,54.57,080622,0.0,E,A*34
$GPGGA,000245.00,3714.5805236,N,12849.8228357,E,1,04,1.0,953.062,M,0.000,M,0.0,*76
$GPGSA,A,3,01,08,16,21,,,,,,,,,4.5,2.5,3.8,1*2F
$GPGSV,1,1,04,01,22,190,51,08,73,324,58,16,33,093,54,21,52,173,54,1*65
$GPRMC,000246.00,A,3714.5900919,N,12849.8390243,E,55.07,61.92,080622,0.0,E,A*3D
$GPGGA,000246.00,3714.5900919,N,12849.8390243,E,1,04,1.0,948.248,M,0.000,M,0.0,*71
$GPGSA,A,3,01,08,16,21,,,,,,,,,4.5,2.5,3.8,1*2F
$GPGSV,1,1,04,01,22,190,50,08,73,324,57,16,33,093,52,21,52,173,56,1*6F
$GPRMC,000247.00,A,3714.5956593,N,12849.8545818,E,47.88,69.45,080622,0.0,E,A*3D
$GPGGA,000247.00,3714.5956593,N,12849.8545818,E,1,04,1.0,961.923,M,0.000,M,0.0,*7A
$GPGSA,A,3,01,08,16,21,,,,,,,,,4.5,2.5,3.8,1*2F
$GPGSV,1,1,04,01,22,190,50,08,73,324,58,16,33,093,54,21,52,173,56,1*66
$GPRMC,000248.00,A,3714.6029159,N,12849.8674413,E,53.32,87.83,080622,0.0,E,A*3A
$GPGGA,000248.00,3714.6029159,N,12849.8674413,E,1,04,1.0,949.796,M,0.000,M,0.0,*79
$GPGSA,A,3,01,08,16,21,,,,,,,,,4.5,2.5,3.8,1*2F
$GPGSV,1,1,04,01,22,190,50,08,73,324,58,16,33,093,54,21,52,173,56,1*66
$GPRMC,000249.00,A,3714.5949686,N,12849.8913990,E,54.13,90.32,080622,0.0,E,A*32
$GPGGA,000249.00,3714.5949686,N,12849.8913990,E,1,04,1.0,968.370,M,0.000,M,0.0,*76
$GPGSA,A,3,01,08,16,21,,,,,,,,,4.5,2.5,3.8,1*2F
$GPGSV,1,1,04,01,22,190,51,08,73,324,57,16,33,093,55,21,52,173,56,1*69
$GPRMC,000250.00,A,3714.5998147,N,12849.9058250,E,57.24,93.52,080622,0.0,E,A*3E
$GPGGA,000250.00,3714.5998147,N,12849.9058250,E,1,04,1.0,943.788,M,0.000,M,0.0,*72
$GPGSA,A,3,01,08,16,21,,,,,,,,,4.5,2.5,3.8,1*2F
$GPGSV,1,1,04,01,22,190,50,08,73,324,58,16,33,093,55,21,52,173,57,1*66
$GPRMC,000251.00,A,3714.5968758,N,12849.9266109,E,58.95,94.15,080622,0.0,E,A*39
$GPGGA,000251.00,3714.5968758,N,12849.9266109,E,1,04,1.0,947.397,M,0.000,M,0.0,*7A
$GPGSA,A,3,01,08,16,21,,,,,,,,,4.5,2.5,3.8,1*2F
$GPGSV,1,1,04,01,22,190,52,08,73,324,59,16,33,093,54,21,52,173,56,1*65
$GPRMC,000252.00,A,3714.5941240,N,12849.9473779,E,56.92,94.21,080622,0.0,E,A*30
$GPGGA,000252.00,3714.5941240,N,12849.9473779,E,1,04,1.0,926.294,M,0.000,M,0.0,*78
$GPGSA,A,3,01,08,16,21,,,,,,,,,4.5,2.5,3.8,1*2F
$GPGSV,1,1,04,01,22,190,50,08,73,324,58,16,33,093,53,21,52,173,54,1*63
$GPRMC,000253.00,A,3714.5935954,N,12849.9631831,E,39.61,98.20,080622,0.0,E,A*33
$GPGGA,000253.00,3714.5935954,N,12849.9631831,E,1,04,1.0,930.880,M,0.000,M,0.0,*7B
$GPGSA,A,3,01,08,16,21,,,,,,,,,4.5,2.5,3.8,1*2F
$GPGSV,1,1,04,01,22,190,50,08,73,324,59,16,33,093,53,21,52,173,56,1*60
$GPRMC,000254.00,A,3714.5959231,N,12849.9684433,E,19.06,128.72,080622,0.0,E,A*08
$GPGGA,000254.00,3714.5959231,N,12849.9684433,E,1,04,1.0,916.983,M,0.000,M,0.0,*78
$GPGSA,A,3,01,08,16,21,,,,,,,,,4.5,2.5,3.8,1*2F
$GPGSV,1,1,04,01,22,190,51,08,73,324,58,16,33,093,52,21,52,173,56,1*61
$GPRMC,000255.00,A,3714.5849094,N,12849.9753205,E,32.32,183.55,080622,0.0,E,A*06
$GPGGA,000255.00,3714.5849094,N,12849.9753205,E,1,04,1.0,929.587,M,0.000,M,0.0,*78
$GPGSA,A,3,01,08,16,21,,,,,,,,,4.5,2.5,3.8,1*2F
$GPGSV,1,1,04,01,22,190,52,08,73,324,59,16,33,093,54,21,52,173,56,1*65
$GPRMC,000256.00,A,3714.5716022,N,12849.9740692,E,55.40,191.90,080622,0.0,E,A*0B
$GPGGA,000256.00,3714.5716022,N,12849.9740692,E,1,04,1.0,943.672,M,0.000,M,0.0,*7E
$GPGSA,A,3,01,08,16,21,,,,,,,,,4.5,2.5,3.8,1*2F
$GPGSV,1,1,04,01,22,190,48,08,73,324,58,16,33,093,54,21,52,173,54,1*6D
$GPRMC,000257.00,A,3714.5621279,N,12849.9656881,E,55.45,195.21,080622,0.0,E,A*02
$GPGGA,000257.00,3714.5621279,N,12849.9656881,E,1,04,1.0,937.158,M,0.000,M,0.0,*70
$GPGSA,A,3,01,08,16,21,,,,,,,,,4.5,2.5,3.8,1*2F
$GPGSV,1,1,04,01,22,190,50,08,73,324,59,16,33,093,53,21,52,173,56,1*60
$GPRMC,000258.00,A,3714.5449761,N,12849.9608910,E,55.42,195.81,080622,0.0,E,A*02
$GPGGA,000258.00,3714.5449761,N,12849.9608910,E,1,04,1.0,946.358,M,0.000,M,0.0,*79
$GPGSA,A,3,01,08,16,21,,,,,,,,,4.5,2.5,3.8,1*2F
$GPGSV,1,1,04,01,22,190,51,08,73,324,56,16,33,094,52,21,52,173,55,1*6B
$GPRMC,000259.00,A,3714.5276503,N,12849.9586958,E,56.22,195.68,080622,0.0,E,A*04
$GPGGA,000259.00,3714.5276503,N,12849.9586958,E,1,04,1.0,960.659,M,0.000,M,0.0,*7D
$GPGSA,A,3,01,08,16,21,,,,,,,,,4.5,2.5,3.8,1*2F
$GPGSV,1,1,04,01,22,190,50,08,73,324,58,16,33,094,53,21,52,173,56,1*66
$GPRMC,000300.00,A,3714.5175818,N,12849.9499289,E,57.57,197.11,080622,0.0,E,A*09
$GPGGA,000300.00,3714.5175818,N,12849.9499289,E,1,04,1.0,957.928,M,0.000,M,0.0,*72
$GPGSA,A,3,01,08,16,21,,,,,,,,,4.5,2.5,3.8,1*2F
$GPGSV,1,1,04,01,22,190,52,08,73,324,60,16,33,094,54,21,52,173,57,1*69
$GPRMC,000301.00,A,3714.5021240,N,12849.9442177,E,58.73,198.05,080622,0.0,E,A*08
$GPGGA,000301.00,3714.5021240,N,12849.9442177,E,1,04,1.0,974.251,M,0.000,M,0.0,*74
$GPGSA,A,3,01,08,16,21,,,,,,,,,4.5,2.5,3.8,1*2F
$GPGSV,1,1,04,01,22,190,50,08,73,324,59,16,33,094,54,21,52,173,58,1*6E
$GPRMC,000302.00,A,3714.4871685,N,12849.9384881,E,58.81,198.52,080622,0.0,E,A*08
$GPGGA,000302.00,3714.4871685,N,12849.9384881,E,1,04,1.0,994.193,M,0.000,M,0.0,*78
$GPGSA,A,3,01,08,16,21,,,,,,,,,4.5,2.5,3.8,1*2F
$GPGSV,1,1,04,01,22,190,50,08,73,324,60,16,33,094,55,21,52,173,57,1*6A
$GPRMC,000303.00,A,3714.4741664,N,12849.9317873,E,56.47,199.25,080622,0.0,E,A*08
$GPGGA,000303.00,3714.4741664,N,12849.9317873,E,1,04,1.0,988.276,M,0.000,M,0.0,*78
$GPGSA,A,3,01,08,16,21,,,,,,,,,4.5,2.5,3.8,1*2F
$GPGSV,1,1,04,01,22,190,51,08,73,324,58,16,33,094,54,21,52,173,56,1*60
$GPRMC,000304.00,A,3714.4586291,N,12849.9277927,E,55.42,197.66,080622,0.0,E,A*00
$GPGGA,000304.00,3714.4586291,N,12849.9277927,E,1,04,1.0,1001.391,M,0.000,M,0.0,*4E
$GPGSA,A,3,01,08,16,21,,,,,,,,,4.5,2.5,3.8,1*2F
$GPGSV,1,1,04,01,22,190,52,08,73,324,58,16,33,094,53,21,52,173,58,1*6A
$GPRMC,000305.00,A,3714.4435246,N,12849.9235837,E,56.34,189.46,080622,0.0,E,A*0B
$GPGGA,000305.00,3714.4435246,N,12849.9235837,E,1,04,1.0,1016.954,M,0.000,M,0.0,*4F
$GPGSA,A,3,01,08,16,21,,,,,,,,,4.5,2.5,3.8,1*2F
$GPGSV,1,1,04,01,22,190,50,08,73,324,57,16,33,094,53,21,52,173,56,1*69
$GPRMC,000306.00,A,3714.4326426,N,12849.9160550,E,57.91,191.91,080622,0.0,E,A*0F
$GPGGA,000306.00,3714.4326426,N,12849.9160550,E,1,04,1.0,1012.197,M,0.000,M,0.0,*45
$GPGSA,A,3,01,08,16,21,,,,,,,,,4.5,2.5,3.8,1*2F
$GPGSV,1,1,04,01,22,190,52,08,73,324,58,16,33,094,53,21,52,173,58,1*6A
$GPRMC,000307.00,A,3714.4159638,N,12849.9134227,E,59.47,200.07,080622,0.0,E,A*0E
$GPGGA,000307.00,3714.4159638,N,12849.9134227,E,1,04,1.0,1024.532,M,0.000,M,0.0,*4B
$GPGSA,A,3,01,08,16,21,,,,,,,,,4.5,2.5,3.8,1*2F
$GPGSV,1,1,04,01,22,190,52,08,73,324,56,16,33,094,53,21,52,173,54,1*68
$GPRMC,000308.00,A,3714.3979601,N,12849.9099131,E,57.26,201.47,080622,0.0,E,A*08
$GPGGA,000308.00,3714.3979601,N,12849.9099131,E,1,04,1.0,1046.231,M,0.000,M,0.0,*41
$GPGSA,A,3,01,08,16,21,,,,,,,,,4.5,2.5,3.8,1*2F
$GPGSV,1,1,04,01,22,190,50,08,73,324,56,16,33,094,53,21,52,173,54,1*6A
$GPRMC,000309.00,A,3714.3886834,N,12849.8987145,E,50.61,199.87,080622,0.0,E,A*0E
$GPGGA,000309.00,3714.3886834,N,12849.8987145,E,1,04,1.0,1047.791,M,0.000,M,0.0,*43
$GPGSA,A,3,01,08,16,21,,,,,,,,,4.5,2.5,3.8,1*2F
$GPGSV,1,1,04,01,22,190,51,08,73,324,57,16,33,094,52,21,52,173,57,1*68
$GPRMC,000310.00,A,3714.3810305,N,12849.8954643,E,22.33,190.25,080622,0.0,E,A*0C
$GPGGA,000310.00,3714.3810305,N,12849.8954643,E,1,04,1.0,1062.294,M,0.000,M,0.0,*45
$GPGSA,A,3,01,08,16,21,,,,,,,,,4.5,2.5,3.8,1*2F
$GPGSV,1,1,04,01,22,190,52,08,73,324,59,16,33,094,51,21,52,173,56,1*67
$GPRMC,000311.00,A,3714.3715779,N,12849.9014421,E,17.34,115.23,080622,0.0,E,A*08
$GPGGA,000311.00,3714.3715779,N,12849.9014421,E,1,04,1.0,1063.262,M,0.000,M,0.0,*43
$GPGSA,A,3,01,08,16,21,,,,,,,,,4.5,2.5,3.8,1*2F
$GPGSV,1,1,04,01,22,190,51,08,73,324,58,16,33,094,54,21,52,173,56,1*60
$GPRMC,000312.00,A,3714.3750617,N,12849.9074522,E,37.29,90.55,080622,0.0,E,A*34
$GPGGA,000312.00,3714.3750617,N,12849.9074522,E,1,04,1.0,1044.333,M,0.000,M,0.0,*4C
$GPGSA,A,3,01,08,16,21,,,,,,,,,4.5,2.5,3.8,1*2F
$GPGSV,1,1,04,01,22,190,51,08,73,324,58,16,33,094,54,21,52,173,56,1*60
$GPRMC,000313.00,A,3714.3748940,N,12849.9191825,E,32.49,75.04,080622,0.0,E,A*3D
$GPGGA,000313.00,3714.3748940,N,12849.9191825,E,1,04,1.0,1053.933,M,0.000,M,0.0,*45
$GPGSA,A,3,01,08,16,21,,,,,,,,,4.5,2.5,3.8,1*2F
$GPGSV,1,1,04,01,22,190,50,08,73,325,57,16,33,094,54,21,52,173,55,1*6C
$GPRMC,000314.00,A,3714.3795666,N,12849.9285758,E,35.74,34.29,080622,0.0,E,A*31
$GPGGA,000314.00,3714.3795666,N,12849.9285758,E,1,04,1.0,1035.932,M,0.000,M,0.0,*4B
$GPGSA,A,3,01,08,16,21,,,,,,,,,4.5,2.5,3.8,1*2F
$GPGSV,1,1,04,01,22,190,51,08,73,325,57,16,33,094,54,21,52,173,56,1*6E
$GPRMC,000315.00,A,3714.3880161,N,12849.9382181,E,57.36,24.98,080622,0.0,E,A*36
$GPGGA,000315.00,3714.3880161,N,12849.9382181,E,1,04,1.0,1039.451,M,0.000,M,0.0,*41
$GPGSA,A,3,01,08,16,21,,,,,,,,,4.5,2.5,3.8,1*2F
$GPGSV,1,1,04,01,22,190,50,08,73,325,58,16,33,094,52,21,52,173,56,1*66
$GPRMC,000316.00,A,3714.4044243,N,12849.9429326,E,59.26,19.57,080622,0.0,E,A*3A
$GPGGA,000316.00,3714.4044243,N,12849.9429326,E,1,04,1.0,1028.230,M,0.000,M,0.0,*4E
$GPGSA,A,3,01,08,16,21,,,,,,,,,4.5,2.5,3.8,1*2F
$GPGSV,1,1,04,01,22,190,49,08,73,325,56,16,33,094,53,21,52,173,55,1*62
$GPRMC,000317.00,A,3714.4201418,N,12849.9474538,E,60.46,11.25,080622,0.0,E,A*30
$GPGGA,000317.00,3714.4201418,N,12849.9474538,E,1,04,1.0,1004.965,M,0.000,M,0.0,*40
$GPGSA,A,3,01,08,16,21,,,,,,,,,4.5,2.5,3.8,1*2F
$GPGSV,1,1,04,01,22,190,50,08,73,325,57,16,33,094,53,21,52,173,54,1*6A
$GPRMC,000318.00,A,3714.4290851,N,12849.9553301,E,58.11,10.84,080622,0.0,E,A*3D
$GPGGA,000318.00,3714.4290851,N,12849.9553301,E,1,04,1.0,1008.390,M,0.000,M,0.0,*42
$GPGSA,A,3,01,08,16,21,,,,,,,,,4.5,2.5,3.8,1*2F
$GPGSV,1,1,04,01,22,190,49,08,73,325,57,16,33,094,53,21,52,173,54,1*62
$GPRMC,000319.00,A,3714.4485378,N,12849.9561614,E,56.66,7.14,080622,0.0,E,A*0F
$GPGGA,000319.00,3714.4485378,N,12849.9561614,E,1,04,1.0,1000.337,M,0.000,M,0.0,*44
$GPGSA,A,3,01,08,16,21,,,,,,,,,4.5,2.5,3.8,1*2F
$GPGSV,1,1,04,01,22,190,50,08,73,325,59,16,33,094,51,21,52,173,54,1*66
$GPRMC,000320.00,A,3714.4631305,N,12849.9548658,E,35.73,17.18,080622,0.0,E,A*3D
$GPGGA,000320.00,3714.4631305,N,12849.9548658,E,1,04,1.0,973.609,M,0.000,M,0.0,*7E
$GPGSA,A,3,01,08,16,21,,,,,,,,,4.5,2.5,3.8,1*2F
$GPGSV,1,1,04,01,22,190,50,08,73,325,57,16,33,094,51,21,52,173,55,1*69
$GPRMC,000321.00,A,3714.4628524,N,12849.9641273,E,21.78,59.48,080622,0.0,E,A*37
$GPGGA,000321.00,3714.4628524,N,12849.9641273,E,1,04,1.0,983.643,M,0.000,M,0.0,*74
$GPGSA,A,3,01,08,16,21,,,,,,,,,4.5,2.5,3.8,1*2F
$GPGSV,1,1,04,01,22,190,51,08,73,325,58,16,33,094,54,21,53,173,56,1*60
$GPRMC,000322.00,A,3714.4703858,N,12849.9698158,E,41.81,90.39,080622,0.0,E,A*37
$GPGGA,000322.00,3714.4703858,N,12849.9698158,E,1,04,1.0,969.018,M,0.000,M,0.0,*7B
$GPGSA,A,3,01,08,16,21,,,,,,,,,4.5,2.5,3.8,1*2F
$GPGSV,1,1,04,01,22,190,50,08,73,325,58,16,33,094,55,21,53,173,56,1*60
$GPRMC,000323.00,A,3714.4694192,N,12849.9869986,E,54.02,91.04,080622,0.0,E,A*3D
$GPGGA,000323.00,3714.4694192,N,12849.9869986,E,1,04,1.0,978.301,M,0.000,M,0.0,*7A
$GPGSA,A,3,01,08,16,21,,,,,,,,,4.5,2.5,3.8,1*2F
$GPGSV,1,1,04,01,22,190,50,08,73,325,58,16,33,094,54,21,53,173,57,1*60
$GPRMC,000324.00,A,3714.4680139,N,12850.0068861,E,44.10,89.60,080622,0.0,E,A*37
$GPGGA,000324.00,3714.4680139,N,12850.0068861,E,1,04,1.0,974.905,M,0.000,M,0.0,*7B
$GPGSA,A,3,01,08,16,21,,,,,,,,,4.5,2.5,3.8,1*2F
$GPGSV,1,1,04,01,22,190,50,08,73,325,57,16,33,094,54,21,53,173,58,1*60
$GPRMC,000325.00,A,3714.4660756,N,12850.0173943,E,24.32,123.16,080622,0.0,E,A*0B
$GPGGA,000325.00,3714.4660756,N,12850.0173943,E,1,04,1.0,980.093,M,0.000,M,0.0,*7C
$GPGSA,A,3,01,08,16,21,,,,,,,,,4.5,2.5,3.8,1*2F
$GPGSV,1,1,04,01,22,190,50,08,73,325,58,16,33,094,53,21,53,173,55,1*65
$GPRMC,000326.00,A,3714.4604837,N,12850.0216553,E,43.14,158.09,080622,0.0,E,A*08
$GPGGA,000326.00,3714.4604837,N,12850.0216553,E,1,04,1.0,986.014,M,0.000,M,0.0,*71
$GPGSA,A,3,01,08,16,21,,,,,,,,,4.5,2.5,3.8,1*2F
$GPGSV,1,1,04,01,22,190,52,08,73,325,57,16,33,094,54,21,53,173,56,1*6C
$GPRMC,000327.00,A,3714.4502230,N,12850.0256774,E,58.10,163.42,080622,0.0,E,A*0B
$GPGGA,000327.00,3714.4502230,N,12850.0256774,E,1,04,1.0,982.750,M,0.000,M,0.0,*78
$GPGSA,A,3,01,08,16,21,,,,,,,,,4.5,2.5,3.8,1*2F
$GPGSV,1,1,04,01,22,190,50,08,73,325,60,16,33,094,54,21,53,173,56,1*6A
$GPRMC,000328.00,A,3714.4294169,N,12850.0351063,E,59.37,169.00,080622,0.0,E,A*0C
$GPGGA,000328.00,3714.4294169,N,12850.0351063,E,1,04,1.0,1005.081,M,0.000,M,0.0,*4B
$GPGSA,A,3,01,08,16,21,,,,,,,,,4.5,2.5,3.8,1*2F
$GPGSV,1,1,04,01,22,190,50,08,73,325,58,16,33,094,52,21,53,173,58,1*69
$GPRMC,000329.00,A,3714.4163613,N,12850.0377817,E,57.90,171.32,080622,0.0,E,A*08
$GPGGA,000329.00,3714.4163613,N,12850.0377817,E,1,04,1.0,1023.580,M,0.000,M,0.0,*44
$GPGSA,A,3,01,08,16,21,,,,,,,,,4.5,2.5,3.8,1*2F
$GPGSV,1,1,04,01,22,190,50,08,73,325,57,16,33,094,52,21,53,173,56,1*68
$GPRMC,000330.00,A,3714.4073482,N,12850.0357870,E,56.52,166.06,080622,0.0,E,A*07
$GPGGA,000330.00,3714.4073482,N,12850.0357870,E,1,04,1.0,1017.502,M,0.000,M,0.0,*48
$GPGSA,A,3,01,08,16,21,,,,,,,,,4.5,2.5,3.8,1*2F
$GPGSV,1,1,04,01,22,190,50,08,73,325,56,16,33,094,52,21,53,173,54,1*6B
$GPRMC,000331.00,A,3714.3880637,N,12850.0452384,E,55.45,163.12,080622,0.0,E,A*0E
$GPGGA,000331.00,3714.3880637,N,12850.0452384,E,1,04,1.0,1041.274,M,0.000,M,0.0,*41
$GPGSA,A,3,01,08,16,21,,,,,,,,,4.5,2.5,3.8,1*2F
$GPGSV,1,1,04,01,22,190,51,08,73,325,57,16,33,094,53,21,53,173,54,1*6A
$GPRMC,000332.00,A,3714.3738911,N,12850.0519944,E,32.28,152.32,080622,0.0,E,A*08
$GPGGA,000332.00,3714.3738911,N,12850.0519944,E,1,04,1.0,1040.587,M,0.000,M,0.0,*47
$GPGSA,A,3,01,08,16,21,,,,,,,,,4.5,2.5,3.8,1*2F
$GPGSV,1,1,04,01,22,190,51,08,73,325,57,16,33,094,50,21,53,173,54,1*69
$GPRMC,000333.00,A,3714.3742672,N,12850.0552221,E,29.63,109.97,080622,0.0,E,A*0D
$GPGGA,000333.00,3714.3742672,N,12850.0552221,E,1,04,1.0,1046.521,M,0.000,M,0.0,*4C
$GPGSA,A,3,01,08,16,21,,,,,,,,,4.5,2.5,3.8,1*2F
$GPGSV,1,1,04,01,22,190,50,08,73,325,58,16,33,094,53,21,53,173,56,1*66
$GPRMC,000334.00,A,3714.3717483,N,12850.0636610,E,29.57,93.72,080622,0.0,E,A*3F
$GPGGA,000334.00,3714.3717483,N,12850.0636610,E,1,04,1.0,1064.384,M,0.000,M,0.0,*49
$GPGSA,A,3,01,08,16,21,,,,,,,,,4.5,2.5,3.8,1*2F
$GPGSV,1,1,04,01,22,190,50,08,73,325,58,16,33,094,52,21,53,173,57,1*66
$GPRMC,000335.00,A,3714.3719359,N,12850.0745085,E,20.56,65.26,080622,0.0,E,A*3F
$GPGGA,000335.00,3714.3719359,N,12850.0745085,E,1,04,1.0,1059.820,M,0.000,M,0.0,*42
$GPGSA,A,3,01,08,16,21,,,,,,,,,4.5,2.5,3.8,1*2F
$GPGSV,1,1,04,01,22,190,50,08,73,325,58,16,33,094,54,21,53,173,55,1*62
$GPRMC,000336.00,A,3714.3723119,N,12850.0805812,E,30.72,11.99,080622,0.0,E,A*3E
$GPGGA,000336.00,3714.3723119,N,12850.0805812,E,1,04,1.0,1071.279,M,0.000,M,0.0,*4F
$GPGSA,A,3,01,08,16,21,,,,,,,,,4.5,2.5,3.8,1*2F
$GPGSV,1,1,04,01,22,190,50,08,73,325,56,16,33,094,52,21,53,173,54,1*6B
$GPRMC,000337.00,A,3714.3905388,N,12850.0785285,E,55.32,3.60,080622,0.0,E,A*0E
$GPGGA,000337.00,3714.3905388,N,12850.0785285,E,1,04,1.0,1058.013,M,0.000,M,0.0,*48
$GPGSA,A,3,01,08,16,21,,,,,,,,,4.5,2.5,3.8,1*2F
$GPGSV,1,1,04,01,22,190,50,08,73,325,58,16,33,094,53,21,53,173,56,1*66
$GPRMC,000338.00,A,3714.4036212,N,12850.0809142,E,57.06,359.37,080622,0.0,E,A*05
$GPGGA,000338.00,3714.4036212,N,12850.0809142,E,1,04,1.0,1055.727,M,0.000,M,0.0,*45
$GPGSA,A,3,01,08,16,21,,,,,,,,,4.5,2.5,3.8,1*2F
$GPGSV,1,1,04,01,22,190,51,08,73,325,59,16,33,094,51,21,53,173,55,1*67
$GPRMC,000339.00,A,3714.4132984,N,12850.0855086,E,59.30,355.72,080622,0.0,E,A*03
$GPGGA,000339.00,3714.4132984,N,12850.0855086,E,1,04,1.0,1052.635,M,0.000,M,0.0,*40
$GPGSA,A,3,01,08,16,21,,,,,,,,,4.5,2.5,3.8,1*2F
$GPGSV,1,1,04,01,22,190,50,08,73,325,58,16,33,094,51,21,53,173,56,1*64
$GPRMC,000340.00,A,3714.4366390,N,12850.0776827,E,58.18,2.05,080622,0.0,E,A*06
$GPGGA,000340.00,3714.4366390,N,12850.0776827,E,1,04,1.0,1020.916,M,0.000,M,0.0,*44
$GPGSA,A,3,01,08,16,21,,,,,,,,,4.5,2.5,3.8,1*2F
$GPGSV,1,1,04,01,22,190,50,08,73,325,58,16,33,094,53,21,53,173,57,1*67
$GPRMC,000341.00,A,3714.4507545,N,12850.0787247,E,56.25,2.90,080622,0.0,E,A*06
$GPGGA,000341.00,3714.4507545,N,12850.0787247,E,1,04,1.0,1016.758,M,0.000,M,0.0,*49
$GPGSA,A,3,01,08,16,21,,,,,,,,,4.5,2.5,3.8,1*2F
$GPGSV,1,1,04,01,22,190,51,08,73,325,57,16,33,094,52,21,53,173,56,1*69
$GPRMC,000342.00,A,3714.4609623,N,12850.0836729,E,54.77,359.32,080622,0.0,E,A*03
$GPGGA,000342.00,3714.4609623,N,12850.0836729,E,1,04,1.0,1017.720,M,0.000,M,0.0,*42
$GPGSA,A,3,01,08,16,21,,,,,,,,,4.5,2.5,3.8,1*2F
$GPGSV,1,1,04,01,22,190,50,08,73,325,58,16,33,094,51,21,53,173,56,1*64
$GPRMC,000343.00,A,3714.4802309,N,12850.0811460,E,54.05,356.41,080622,0.0,E,A*0F
$GPGGA,000343.00,3714.4802309,N,12850.0811460,E,1,04,1.0,1003.467,M,0.000,M,0.0,*45
$GPGSA,A,3,01,08,16,21,,,,,,,,,4.5,2.5,3.8,1*2F
$GPGSV,1,1,04,01,22,190,51,08,73,325,58,16,33,094,52,21,53,173,57,1*67
$GPRMC,000344.00,A,3714.4933911,N,12850.0799688,E,54.70,358.39,080622,0.0,E,A*00
$GPGGA,000344.00,3714.4933911,N,12850.0799688,E,1,04,1.0,1013.790,M,0.000,M,0.0,*43
$GPGSA,A,3,01,08,16,21,,,,,,,,,4.5,2.5,3.8,1*2F
$GPGSV,1,1,04,01,22,190,50,08,73,325,56,16,33,094,52,21,53,173,56,1*69
$GPRMC,000345.00,A,3714.5084882,N,12850.0806665,E,56.70,3.25,080622,0.0,E,A*06
$GPGGA,000345.00,3714.5084882,N,12850.0806665,E,1,04,1.0,1005.075,M,0.000,M,0.0,*4C
$GPGSA,A,3,01,08,16,21,,,,,,,,,4.5,2.5,3.8,1*2F
$GPGSV,1,1,04,01,22,190,51,08,73,325,56,16,33,094,52,21,53,173,55,1*6B
$GPRMC,000346.00,A,3714.5221265,N,12850.0832609,E,57.59,359.91,080622,0.0,E,A*0F
$GPGGA,000346.00,3714.5221265,N,12850.0832609,E,1,04,1.0,987.291,M,0.000,M,0.0,*76
$GPGSA,A,3,01,08,16,21,,,,,,,,,4.5,2.5,3.8,1*2F
$GPGSV,1,1,04,01,22,190,50,08,73,325,58,16,33,094,52,21,53,173,55,1*64
$GPRMC,000347.00,A,3714.5376413,N,12850.0792792,E,56.68,353.31,080622,0.0,E,A*0F
$GPGGA,000347.00,3714.5376413,N,12850.0792792,E,1,04,1.0,990.098,M,0.000,M,0.0,*78
$GPGSA,A,3,01,08,16,21,,,,,,,,,4.5,2.5,3.8,1*2F
$GPGSV,1,1,04,01,22,190,50,08,73,325,60,16,33,094,53,21,53,173,57,1*6C
$GPRMC,000348.00,A,3714.5550455,N,12850.0741183,E,56.16,356.34,080622,0.0,E,A*01
$GPGGA,000348.00,3714.5550455,N,12850.0741183,E,1,04,1.0,967.300,M,0.000,M,0.0,*75
$GPGSA,A,3,01,08,16,21,,,,,,,,,4.5,2.5,3.8,1*2F
$GPGSV,1,1,04,01,22,190,51,08,73,326,59,16,33,094,52,21,53,173,56,1*64
$GPRMC,000349.00,A,3714.5681308,N,12850.0782667,E,55.97,6.72,080622,0.0,E,A*0C
$GPGGA,000349.00,3714.5681308,N,12850.0782667,E,1,04,1.0,958.188,M,0.000,M,0.0,*78
$GPGSA,A,3,01,08,16,21,,,,,,,,,4.5,2.5,3.8,1*2F
$GPGSV,1,1,04,01,22,190,50,08,73,326,58,16,33,094,53,21,53,173,54,1*67
$GPRMC,000350.00,A,3714.5814561,N,12850.0820171,E,56.14,4.70,080622,0.0,E,A*00
$GPGGA,000350.00,3714.5814561,N,12850.0820171,E,1,04,1.0,967.523,M,0.000,M,0.0,*75
$GPGSA,A,3,01,08,16,21,,,,,,,,,4.5,2.5,3.8,1*2F
$GPGSV,1,1,04,01,22,190,52,08,73,326,58,16,33,094,53,21,53,173,55,1*64
$GPRMC,000351.00,A,3714.6013041,N,12850.0768394,E,41.31,358.49,080622,0.0,E,A*01
$GPGGA,000351.00,3714.6013041,N,12850.0768394,E,1,04,1.0,950.141,M,0.000,M,0.0,*71
$GPGSA,A,3,01,08,16,21,,,,,,,,,4.5,2.5,3.8,1*2F
$GPGSV,1,1,04,01,22,190,50,08,73,326,58,16,33,094,52,21,53,173,57,1*65
$GPRMC,000352.00,A,3714.6042069,N,12850.0826577,E,17.13,26.81,080622,0.0,E,A*3F
$GPGGA,000352.00,3714.6042069,N,12850.0826577,E,1,04,1.0,949.459,M,0.000,M,0.0,*76
$GPGSA,A,3,01,08,16,21,,,,,,,,,4.5,2.5,3.8,1*2F
$GPGSV,1,1,04,01,22,190,50,08,73,326,58,16,33,094,54,21,53,173,55,1*61
$GPRMC,000353.00,A,3714.6039221,N,12850.0906283,E,28.34,89.70,080622,0.0,E,A*31
$GPGGA,000353.00,3714.6039221,N,12850.0906283,E,1,04,1.0,960.524,M,0.000,M,0.0,*7A
$GPGSA,A,3,01,08,16,21,,,,,,,,,4.5,2.5,3.8,1*2F
$GPGSV,1,1,04,01,22,190,50,08,73,326,59,16,33,094,54,21,53,173,54,1*61
$GPRMC,000354.00,A,3714.6050566,N,12850.1010215,E,56.43,100.08,080622,0.0,E,A*0B
